{"schools":[{
		"type": "School",
		"title": "Residential School",
		"locationName": "Assumption (Hay Lakes)",
		"schoolID": "assumption",
		"placeName": "Assumption",
		"province": "Alberta",
		"provinceAbb": "AB",
		"region": "northwestern",
		"latitude": 58.7018,
		"longitude": -118.686322,
		"start": "1951",
		"end": "1974",
		"id": "S-49"
	}, {
		"type": "School",
		"title": "Residential School",
		"locationName": "Blue Quills (Sacred Heart)",
		"schoolID": "blueQuills",
		"placeName": "Saint Paul",
		"province": "Alberta",
		"provinceAbb": "AB",
		"region": "eastern",
		"latitude": 53.991486111111115,
		"longitude": -111.29561388888888,
		"start": "1898",
		"end": "1990",
		"id": "S-50"
	}, {
		"type": "School",
		"title": "Residential School",
		"locationName": "Crowfoot (St. Joseph's)",
		"schoolID": "crowfoot",
		"placeName": "Cluny",
		"province": "Alberta",
		"provinceAbb": "AB",
		"region": "central",
		"latitude": 50.83276388888889,
		"longitude": -112.88692222222222,
		"start": "1900",
		"end": "1968",
		"id": "S-51"
	}, {
		"type": "School",
		"title": "Residential School",
		"locationName": "Desmarais (St. Martin's)",
		"schoolID": "desmarais",
		"placeName": "Desmarais-Wabasca",
		"province": "Alberta",
		"provinceAbb": "AB",
		"region": "central",
		"latitude": 55.9438555555555,
		"longitude": -113.80587222222222,
		"start": "1902",
		"end": "1973",
		"id": "S-52"
	}, {
		"type": "School",
		"title": "Residential School",
		"locationName": "Edmonton (Poundmaker)",
		"schoolID": "edmonton",
		"placeName": "St. Albert",
		"province": "Alberta",
		"provinceAbb": "AB",
		"region": "central",
		"latitude": 53.6522333333333,
		"longitude": -113.57271388888888,
		"start": "1924",
		"end": "1968",
		"id": "S-53"
	}, {
		"type": "School",
		"title": "Residential School",
		"locationName": "Ermineskin (Hobbema)",
		"schoolID": "ermineskin",
		"placeName": "Hobbema",
		"province": "Alberta",
		"provinceAbb": "AB",
		"region": "central",
		"latitude": 52.8363222222222,
		"longitude": -113.45735555555555,
		"start": "1895",
		"end": "1975",
		"id": "S-54"
	}, {
		"type": "School",
		"title": "Residential School",
		"locationName": "Fort Vermilion (St. Henri)",
		"schoolID": "fortVermilion",
		"placeName": "Fort Vermilion",
		"province": "Alberta",
		"provinceAbb": "AB",
		"region": "northern",
		"latitude": 58.3891888888888,
		"longitude": -116.02031111111111,
		"start": "1903",
		"end": "1968",
		"id": "S-55"
	}, {
		"type": "School",
		"title": "Residential School",
		"locationName": "Grouard (St. Bernard's)",
		"schoolID": "grouard",
		"placeName": "Grouard",
		"province": "Alberta",
		"provinceAbb": "AB",
		"region": "central",
		"latitude": 55.5471667,
		"longitude": -116.12205555555555,
		"start": "1894",
		"end": "1957",
		"id": "S-56"
	}, {
		"type": "School",
		"title": "Residential School",
		"locationName": "Holy Angels (Fort Chipewyan)",
		"schoolID": "holyAngels",
		"placeName": "Fort Chipewyan",
		"province": "Alberta",
		"provinceAbb": "AB",
		"region": "northeastern",
		"latitude": 58.7112,
		"longitude": -111.17351111111111,
		"start": "1900",
		"end": "1974",
		"id": "S-57"
	}, {
		"type": "School",
		"title": "Residential School",
		"locationName": "Joussard (St. Bruno's)",
		"schoolID": "joussard",
		"placeName": "Joussard",
		"province": "Alberta",
		"provinceAbb": "AB",
		"region": "central",
		"latitude": 55.401075,
		"longitude": -115.9701388888889,
		"start": "1913",
		"end": "1969",
		"id": "S-58"
	}, {
		"type": "School",
		"title": "Residential School",
		"locationName": "Lac la Biche (Notre Dame des Victoires)",
		"schoolID": "lacLaBiche",
		"placeName": "Lac la Biche",
		"province": "Alberta",
		"provinceAbb": "AB",
		"region": "eastern",
		"latitude": 54.82355555555556,
		"longitude": -112.09356388888888,
		"start": "1893",
		"end": "1898",
		"id": "S-59"
	}, {
		"type": "School",
		"title": "Residential School",
		"locationName": "Lesser Slave Lake (St. Peter's)",
		"schoolID": "lesserSlaveLake",
		"placeName": "Lesser Slave Lake",
		"province": "Alberta",
		"provinceAbb": "AB",
		"region": "central",
		"latitude": 55.579483333333336,
		"longitude": -116.19805277777777 ,
		"start": "1895",
		"end": "1932",
		"id": "S-60"
	}, {
		"type": "School",
		"title": "Residential School",
		"locationName": "Morley (Stony)",
		"schoolID": "morley",
		"placeName": "Morley",
		"province": "Alberta",
		"provinceAbb": "AB",
		"region": "western",
		"latitude": 51.18805555555555,
		"longitude": -114.8261111111111,
		"start": "1922",
		"end": "1969",
		"id": "S-61"
	}, {
		"type": "School",
		"title": "Residential School",
		"locationName": "Old Sun (Blackfoot)",
		"schoolID": "oldSun",
		"placeName": "Gleichen",
		"province": "Alberta",
		"provinceAbb": "AB",
		"region": "southern",
		"latitude": 50.8481555555555,
		"longitude": -113.06037777777777,
		"start": "1886",
		"end": "1971",
		"id": "S-62"
	}, {
		"type": "School",
		"title": "Residential School",
		"locationName": "Sacred Heart (Peigan)",
		"schoolID": "sacredHeartPeigan",
		"placeName": "Brocket",
		"province": "Alberta",
		"provinceAbb": "AB",
		"region": "southern",
		"latitude": 49.546,
		"longitude": -113.6494,
		"start": "1887",
		"end": "1961",
		"id": "S-63"
	}, {
		"type": "School",
		"title": "Residential School",
		"locationName": "St. Albert (Youville)",
		"schoolID": "stAlbert",
		"placeName": "Youville",
		"province": "Alberta",
		"provinceAbb": "AB",
		"region": "central",
		"latitude": 53.63701666666667,
		"longitude": -113.63092499999999,
		"start": "1873",
		"end": "1948",
		"id": "S-64"
	}, {
		"type": "School",
		"title": "Residential School",
		"locationName": "St. Augustine (Smoky River)",
		"schoolID": "stAugustine",
		"placeName": "Smoky River / Peace River",
		"province": "Alberta",
		"provinceAbb": "AB",
		"region": "western",
		"latitude": 56.154961111111106,
		"longitude": -117.44531666666667,
		"start": "1900",
		"end": "1907",
		"id": "S-65"
	}, {
		"type": "School",
		"title": "Residential School",
		"locationName": "St. Cyprian's (Queen Victoria's Jubilee Home)",
		"schoolID": "stCyprian",
		"placeName": "Brocket (Peigan Reserve)",
		"province": "Alberta",
		"provinceAbb": "AB",
		"region": "southern",
		"latitude": 49.515769444444444,
		"longitude": -113.70534444444445,
		"start": "1890",
		"end": "1961",
		"id": "S-66"
	}, {
		"type": "School",
		"title": "Residential School",
		"locationName": "St. Joseph's (Dunbow)",
		"schoolID": "dunbow",
		"placeName": "High River",
		"province": "Alberta",
		"provinceAbb": "AB",
		"region": "southwestern",
		"latitude": 50.8082416666666,
		"longitude": -113.79081111111111,
		"start": "1884",
		"end": "1922",
		"id": "S-67"
	}, {
		"type": "School",
		"title": "Residential School",
		"locationName": "St. Mary's (Blood)",
		"schoolID": "blood",
		"placeName": "Cardston",
		"province": "Alberta",
		"provinceAbb": "AB",
		"region": "southern",
		"latitude": 49.29872222222222,
		"longitude": -113.3441,
		"start": "1898",
		"end": "1988",
		"id": "S-68"
	}, {
		"type": "School",
		"title": "Residential School",
		"locationName": "St. Paul's (Blood)",
		"schoolID": "stPauls",
		"placeName": "Cardston",
		"province": "Alberta",
		"provinceAbb": "AB",
		"region": "southern",
		"latitude": 49.29872222222222,
		"longitude": -113.3441,
		"start": "1893",
		"end": "1975",
		"id": "S-69"
	}, {
		"type": "School",
		"title": "Residential School",
		"locationName": "Sarcee (St. Barnabas)",
		"schoolID": "sarcee",
		"placeName": "Sarcee Junction (T'suu Tina)",
		"province": "Alberta",
		"provinceAbb": "AB",
		"region": "central",
		"latitude": 50.9319777777777,
		"longitude": -114.1487388888889,
		"start": "1892",
		"end": "1921",
		"id": "S-70"
	}, {
		"type": "School",
		"title": "Residential School",
		"locationName": "Sturgeon Lake (Calais)",
		"schoolID": "sturgeonLake",
		"placeName": "Calais",
		"province": "Alberta",
		"provinceAbb": "AB",
		"region": "western",
		"latitude": 55.0725388888888,
		"longitude": -117.50205555555556,
		"start": "1907",
		"end": "1961",
		"id": "S-71"
	}, {
		"type": "School",
		"title": "Residential School",
		"locationName": "Wabasca (St. John's)",
		"schoolID": "wabasca",
		"placeName": "Wabasca",
		"province": "Alberta",
		"provinceAbb": "AB",
		"region": "central",
		"latitude": 55.9823,
		"longitude": -113.89792777777778,
		"start": "1902",
		"end": "1966",
		"id": "S-72"
	}, {
		"type": "School",
		"title": "Residential School",
		"locationName": "Whitefish Lake (St. Andrew's)",
		"schoolID": "whitefishLake",
		"placeName": "Whitefish Lake",
		"province": "Alberta",
		"provinceAbb": "AB",
		"region": "eastern",
		"latitude": 55.9178694444444,
		"longitude": -115.66080555555555,
		"start": "1908",
		"end": "1950",
		"id": "S-73"
	}, {
		"type": "School",
		"title": "Residential School",
		"locationName": "Ahousaht",
		"schoolID": "ahousaht",
		"placeName": "Ahousaht",
		"province": "British Columbia",
		"provinceAbb": "BC",
		"region": "western",
		"latitude": 49.273044444444444,
		"longitude": -126.05105,
		"start": "1904",
		"end": "1940",
		"id": "S-32"
	}, {
		"type": "School",
		"title": "Residential School",
		"locationName": "Alberni",
		"schoolID": "alberni",
		"placeName": "Port Alberni",
		"province": "British Columbia",
		"provinceAbb": "BC",
		"region": "western",
		"latitude": 49.264005555555556,
		"longitude": -124.84431388888889,
		"start": "1900",
		"end": "1973",
		"id": "S-33"
	}, {
		"type": "School",
		"title": "Residential School",
		"locationName": "Cariboo (Williams Lake)",
		"schoolID": "cariboo",
		"placeName": "Williams Lake",
		"province": "British Columbia",
		"provinceAbb": "BC",
		"region": "central",
		"latitude": 52.06208888888889,
		"longitude": -121.95203055555555,
		"start": "1891",
		"end": "1981",
		"id": "S-34"
	}, {
		"type": "School",
		"title": "Residential School",
		"locationName": "Christie (Tofino)",
		"schoolID": "christie",
		"placeName": "Meares Island / Tofino",
		"province": "British Columbia",
		"provinceAbb": "BC",
		"region": "western",
		"latitude": 49.13110833333334,
		"longitude": -125.90098333333334,
		"start": "1900",
		"end": "1983",
		"id": "S-35"
	}, {
		"type": "School",
		"title": "Residential School",
		"locationName": "Coqualeetza (Chilliwack Home)",
		"schoolID": "coqualeetza",
		"placeName": "Chilliwack / Sardis",
		"province": "British Columbia",
		"provinceAbb": "BC",
		"region": "southwestern",
		"latitude": 49.135930555555554,
		"longitude": -121.95994722222222,
		"start": "1889",
		"end": "1940",
		"id": "S-36"
	}, {
		"type": "School",
		"title": "Residential School",
		"locationName": "Cranbrook (St. Eugene's)",
		"schoolID": "cranbrook",
		"placeName": "Cranbrook",
		"province": "British Columbia",
		"provinceAbb": "BC",
		"region": "southern",
		"latitude": 49.58550833333334,
		"longitude": -115.75664444444445,
		"start": "1890",
		"end": "1970",
		"id": "S-37"
	}, {
		"type": "School",
		"title": "Residential School",
		"locationName": "Kamloops (St. Louis)",
		"schoolID": "kamloops",
		"placeName": "Kamloops",
		"province": "British Columbia",
		"provinceAbb": "BC",
		"region": "southern",
		"latitude": 50.67955833333333,
		"longitude": -120.2951361111111,
		"start": "1890",
		"end": "1978",
		"id": "S-38"
	}, {
		"type": "School",
		"title": "Residential School",
		"locationName": "Kitimaat (Elizabeth Long Memorial Home for Girls)",
		"schoolID": "kitimaat",
		"placeName": "Kitimaat",
		"province": "British Columbia",
		"provinceAbb": "BC",
		"region": "western",
		"latitude": 53.96943888888889,
		"longitude": -128.64783055555554,
		"start": "1908",
		"end": "1941",
		"id": "S-39"
	}, {
		"type": "School",
		"title": "Residential School",
		"locationName": "Kuper Island",
		"schoolID": "kuperIsland",
		"placeName": "Kuper Island",
		"province": "British Columbia",
		"provinceAbb": "BC",
		"region": "southwestern",
		"latitude": 48.972855555555554,
		"longitude": -123.65574722222223,
		"start": "1890",
		"end": "1975",
		"id": "S-40"
	}, {
		"type": "School",
		"title": "Residential School",
		"locationName": "Lejac (Stuart Lake)",
		"schoolID": "lejac",
		"placeName": "Fraser Lake",
		"province": "British Columbia",
		"provinceAbb": "BC",
		"region": "central",
		"latitude": 54.062330555555555,
		"longitude": -124.76186944444444,
		"start": "1917",
		"end": "1976",
		"id": "S-41"
	}, {
		"type": "School",
		"title": "Residential School",
		"locationName": "Lower Post",
		"schoolID": "lowerPost",
		"placeName": "Lower Post",
		"province": "British Columbia",
		"provinceAbb": "BC",
		"region": "northern",
		"latitude": 59.92429722222222,
		"longitude": -128.4965222222222,
		"start": "1951",
		"end": "1975",
		"id": "S-42"
	}, {
		"type": "School",
		"title": "Residential School",
		"locationName": "Port Simpson (Crosby Home for Girls)",
		"schoolID": "portSimpson",
		"placeName": "Port Simpson (Lax Kw'alaams)",
		"province": "British Columbia",
		"provinceAbb": "BC",
		"region": "western",
		"latitude": 54.55626944444444,
		"longitude": -130.43140277777778,
		"start": "1892",
		"end": "1948",
		"id": "S-43"
	}, {
		"type": "School",
		"title": "Residential School",
		"locationName": "St. George's (Lytton)",
		"placeName": "Lytton",
		"schoolID": "stGeorge",
		"province": "British Columbia",
		"provinceAbb": "BC",
		"region": "southern",
		"latitude": 50.27011666666667,
		"longitude": -121.60079444444443,
		"start": "1901",
		"end": "1979",
		"id": "S-44"
	}, {
		"type": "School",
		"title": "Residential School",
		"locationName": "St. Mary's (Mission)",
		"schoolID": "stMarys",
		"placeName": "Mission",
		"province": "British Columbia",
		"provinceAbb": "BC",
		"region": "southwestern",
		"latitude": 49.1374,
		"longitude": -122.28794722222221,
		"start": "1867",
		"end": "1984",
		"id": "S-45"
	}, {
		"type": "School",
		"title": "Residential School",
		"locationName": "St. Michael's (Alert Bay)",
		"schoolID": "stMichaels",
		"placeName": "Alert Bay",
		"province": "British Columbia",
		"provinceAbb": "BC",
		"region": "western",
		"latitude": 50.59395555555556,
		"longitude": -126.94139722222222,
		"start": "1894",
		"end": "1974",
		"id": "S-46"
	}, {
		"type": "School",
		"title": "Residential School",
		"locationName": "Sechelt (St. Augustine's)",
		"schoolID": "sechelt",
		"placeName": "Sechelt",
		"province": "British Columbia",
		"provinceAbb": "BC",
		"region": "southwestern",
		"latitude": 49.473955555555555,
		"longitude": -123.75006944444445,
		"start": "1904",
		"end": "1975",
		"id": "S-47"
	}, {
		"type": "School",
		"title": "Residential School",
		"locationName": "St. Paul's (Squamish)",
		"schoolID": "squamish",
		"placeName": "North Vancouver",
		"province": "British Columbia",
		"provinceAbb": "BC",
		"region": "southwestern",
		"latitude": 49.319586111111114,
		"longitude": -123.08731666666666,
		"start": "1899",
		"end": "1959",
		"id": "S-48"
	}, {
		"type": "School",
		"title": "Residential School",
		"locationName": "Anahim Lake Dormitory (Ulkatcho)",
		"schoolID": "anahimLake",
		"placeName": "Anahim Lake",
		"province": "British Columbia",
		"provinceAbb": "BC",
		"region": "central",
		"latitude": 52.4654277777777,
		"longitude": -125.30755277777777,
		"start": "1968",
		"end": "1977",
		"id": "S-133"
	}, {
		"type": "School",
		"title": "Residential School",
		"locationName": "Assiniboia (Winnipeg)",
		"schoolID": "assiniboia",
		"placeName": "Winnipeg",
		"province": "Manitoba",
		"provinceAbb": "MB",
		"region": "southern",
		"latitude": 49.875280555555555,
		"longitude": -97.19981944444444 ,
		"start": "1958",
		"end": "1973",
		"id": "S-90"
	}, {
		"type": "School",
		"title": "Residential School",
		"locationName": "Birtle",
		"schoolID": "birtle",
		"placeName": "Birtle",
		"province": "Manitoba",
		"provinceAbb": "MB",
		"region": "southwestern",
		"latitude": 50.431911111111106,
		"longitude": -101.04183055555555,
		"start": "1888",
		"end": "1970",
		"id": "S-91"
	}, {
		"type": "School",
		"title": "Residential School",
		"locationName": "Brandon",
		"schoolID": "brandon",
		"placeName": "Brandon",
		"province": "Manitoba",
		"provinceAbb": "MB",
		"region": "southwestern",
		"latitude": 49.86935,
		"longitude": -99.98953055555556,
		"start": "1895",
		"end": "1972",
		"id": "S-92"
	}, {
		"type": "School",
		"title": "Residential School",
		"locationName": "Churchill",
		"schoolID": "churchill",
		"placeName": "Churchill",
		"province": "Manitoba",
		"provinceAbb": "MB",
		"region": "northeastern",
		"latitude": 58.75689444444444,
		"longitude": -94.07794444444444,
		"start": "1964",
		"end": "1973",
		"id": "S-93"
	}, {
		"type": "School",
		"title": "Residential School",
		"locationName": "Cross Lake",
		"schoolID": "crossLake",
		"placeName": "Cross Lake",
		"province": "Manitoba",
		"provinceAbb": "MB",
		"region": "central",
		"latitude": 54.60236666666667,
		"longitude": -97.77560833333334,
		"start": "1912",
		"end": "1969",
		"id": "S-94"
	}, {
		"type": "School",
		"title": "Residential School",
		"locationName": "McKay (Dauphin)",
		"schoolID": "mcKay",
		"placeName": "The Pas / Dauphin",
		"province": "Manitoba",
		"provinceAbb": "MB",
		"region": "western",
		"latitude": 51.140299999999996,
		"longitude": -100.06588333333333,
		"start": "1914",
		"end": "1988",
		"id": "S-95"
	}, {
		"type": "School",
		"title": "Residential School",
		"locationName": "Elkhorn (Washakada)",
		"schoolID": "elkhorn",
		"placeName": "Elkhorn",
		"province": "Manitoba",
		"provinceAbb": "MB",
		"region": "southwestern",
		"latitude": 49.977069444444446,
		"longitude": -101.25095,
		"start": "1889",
		"end": "1949",
		"id": "S-96"
	}, {
		"type": "School",
		"title": "Residential School",
		"locationName": "Fort Alexander (Pine Falls)",
		"schoolID": "forAlexander",
		"placeName": "Fort Alexander",
		"province": "Manitoba",
		"provinceAbb": "MB",
		"region": "southeastern",
		"latitude": 50.616308333333336,
		"longitude": -96.30871666666667,
		"start": "1905",
		"end": "1970",
		"id": "S-97"
	}, {
		"type": "School",
		"title": "Residential School",
		"locationName": "Guy Hill (Clearwater)",
		"schoolID": "guyHill",
		"placeName": "The Pas",
		"province": "Manitoba",
		"provinceAbb": "MB",
		"region": "western",
		"latitude": 53.98446111111111,
		"longitude": -101.03793888888889,
		"start": "1952",
		"end": "1979",
		"id": "S-99"
	}, {
		"type": "School",
		"title": "Residential School",
		"locationName": "Norway House (Rossville)",
		"schoolID": "norwayHouse",
		"placeName": "Norway House",
		"province": "Manitoba",
		"provinceAbb": "MB",
		"region": "central",
		"latitude": 53.99718333333333,
		"longitude": -97.78369166666667,
		"start": "1899",
		"end": "1967",
		"id": "S-100"
	}, {
		"type": "School",
		"title": "Residential School",
		"locationName": "Notre Dame Hostel (Jack River Annex)",
		"schoolID": "notreDame",
		"placeName": "Cross Lake",
		"province": "Manitoba",
		"provinceAbb": "MB",
		"region": "central",
		"latitude": 53.950125,
		"longitude": -97.84936666666667,
		"start": "1960",
		"end": "1967",
		"id": "S-130"
	}, {
		"type": "School",
		"title": "Residential School",
		"locationName": "Pine Creek (Camperville)",
		"schoolID": "pineCreek",
		"placeName": "Camperville",
		"province": "Manitoba",
		"provinceAbb": "MB",
		"region": "western",
		"latitude": 52.00363055555555,
		"longitude": -100.15050000000001,
		"start": "1890",
		"end": "1969",
		"id": "S-101"
	}, {
		"type": "School",
		"title": "Residential School",
		"locationName": "Portage la Prairie",
		"schoolID": "portageLaPrairie",
		"placeName": "Portage la Prairie",
		"province": "Manitoba",
		"provinceAbb": "MB",
		"region": "southern",
		"latitude": 49.962300000000006,
		"longitude": -98.32254999999999,
		"start": "1891",
		"end": "1975",
		"id": "S-102"
	}, {
		"type": "School",
		"title": "Residential School",
		"locationName": "Sandy Bay",
		"schoolID": "sandyBay",
		"placeName": "Marius",
		"province": "Manitoba",
		"provinceAbb": "MB",
		"region": "southern",
		"latitude": 50.558049999999994,
		"longitude": -98.64953055555556,
		"start": "1905",
		"end": "1970",
		"id": "S-103"
	}, {
		"type": "School",
		"title": "Residential School",
		"locationName": "Shubenacadie (St. Anne's Convent)",
		"schoolID": "shubenacadie",
		"placeName": "Shubenacadie",
		"province": "Nova Scotia",
		"provinceAbb": "NS",
		"region": "central",
		"latitude": 45.096650000000004,
		"longitude": -63.40818055555555,
		"start": "1929",
		"end": "1967",
		"id": "S-129"
	}, {
		"type": "School",
		"title": "Residential School",
		"locationName": "Chesterfield Inlet (Turquetil Hall)",
		"placeName": "Chesterfield Inlet (Igluligaarjuk)",
		"schoolID": "chesterfieldInlet",
		"province": "Nunavut",
		"provinceAbb": "NU",
		"region": "eastern",
		"latitude": 63.34011944444445,
		"longitude": -90.70515833333333,
		"start": "1954",
		"end": "1969",
		"id": "S-19"
	}, {
		"type": "School",
		"title": "Residential School",
		"locationName": "Federal Tent Hostel at Coppermine",
		"schoolID": "coppermine",
		"placeName": "Coppermine",
		"province": "Nunavut",
		"provinceAbb": "NU",
		"region": "northwestern",
		"latitude": 67.82262222222222,
		"longitude": -115.09606944444444,
		"start": "1951",
		"end": "1959",
		"id": "S-20"
	}, {
		"type": "School",
		"title": "Residential School",
		"locationName": "Federal Hostel at Baker Lake (Qamani'tuaq)",
		"schoolID": "bakerLake",
		"placeName": "Baker Lake (Qamani'tuaq)",
		"province": "Nunavut",
		"provinceAbb": "NU",
		"region": "central",
		"latitude": 64.31631944444444,
		"longitude": -96.01343333333334,
		"start": "1961",
		"end": "1968",
		"id": "S-21"
	}, {
		"type": "School",
		"title": "Residential School",
		"locationName": "Federal Hostel at Belcher Islands",
		"schoolID": "belcherIslands",
		"placeName": "Flaherty Island (South Camp) / Sanikiluaq",
		"province": "Nunavut",
		"provinceAbb": "NU",
		"region": "eastern",
		"latitude": 56.51016111111111,
		"longitude": -79.21507222222222,
		"start": "1963",
		"end": "1964",
		"id": "S-22"
	}, {
		"type": "School",
		"title": "Residential School",
		"locationName": "Federal Hostel at Broughton Island (Qikiqtarjuaq)",
		"schoolID": "broughtonIsland",
		"placeName": "Qikiqtarjuaq",
		"province": "Nunavut",
		"provinceAbb": "NU",
		"region": "northeastern",
		"latitude": 67.55561666666666,
		"longitude": -64.02568055555555,
		"start": "1961",
		"end": "1966",
		"id": "S-23"
	}, {
		"type": "School",
		"title": "Residential School",
		"locationName": "Federal Hostel at Cambridge Bay",
		"schoolID": "cambridgeBay",
		"placeName": "Cambridge Bay",
		"province": "Nunavut",
		"provinceAbb": "NU",
		"region": "northern",
		"latitude": 69.11723055555555,
		"longitude": -105.05305555555556,
		"start": "1964",
		"end": "1997",
		"id": "S-24"
	}, {
		"type": "School",
		"title": "Residential School",
		"locationName": "Federal Hostel at Cape Dorset (Kinngait)",
		"schoolID": "capeDorest",
		"placeName": "Kinngait",
		"province": "Nunavut",
		"provinceAbb": "NU",
		"region": "eastern",
		"latitude": 64.23037222222223,
		"longitude": -76.54096388888888,
		"start": "1962",
		"end": "1965",
		"id": "S-25"
	}, {
		"type": "School",
		"title": "Residential School",
		"locationName": "Federal Hostel at Eskimo Point (Arviat)",
		"schoolID": "eskimoPoint",
		"placeName": "Arviat",
		"province": "Nunavut",
		"provinceAbb": "NU",
		"region": "central",
		"latitude": 61.10782777777778,
		"longitude": -94.06236944444444,
		"start": "1962",
		"end": "1967",
		"id": "S-26"
	}, {
		"type": "School",
		"title": "Residential School",
		"locationName": "Federal Hostel at Frobisher Bay (Ukkivik Student Residence)",
		"schoolID": "frobisherBay",
		"placeName": "Iqaluit",
		"province": "Nunavut",
		"provinceAbb": "NU",
		"region": "northeastern",
		"latitude": 63.757575,
		"longitude": -68.54323333333333,
		"start": "1971",
		"end": "1995",
		"id": "S-27"
	}, {
		"type": "School",
		"title": "Residential School",
		"locationName": "Federal Hostel at Igloolik (Iglulik)",
		"schoolID": "iglooik",
		"placeName": "Igloolik / Iglulik",
		"province": "Nunavut",
		"provinceAbb": "NU",
		"region": "northern",
		"latitude": 69.36733333333332,
		"longitude": -81.82313055555555 ,
		"start": "1961",
		"end": "1969",
		"id": "S-28"
	}, {
		"type": "School",
		"title": "Residential School",
		"locationName": "Federal Hostel at Lake Harbour (Kimmirut Hostel)",
		"schoolID": "lakeHarbour",
		"placeName": "Kimmirut",
		"province": "Nunavut",
		"provinceAbb": "NU",
		"region": "eastern",
		"latitude": 62.8474027777777 ,
		"longitude": -69.86920277777777 ,
		"start": "1963",
		"end": "1965",
		"id": "S-29"
	}, {
		"type": "School",
		"title": "Residential School",
		"locationName": "Federal Hostel at Pangnirtung (Pangnirtang)",
		"schoolID": "pangnirtung",
		"placeName": "Panniqtuuq",
		"province": "Nunavut",
		"provinceAbb": "NU",
		"region": "eastern",
		"latitude": 66.1465583333333,
		"longitude": -65.70121944444445 ,
		"start": "1964",
		"end": "1967",
		"id": "S-30"
	}, {
		"type": "School",
		"title": "Residential School",
		"locationName": "Federal Hostel at Pond Inlet (Mittimatalik)",
		"schoolID": "pondInlet",
		"placeName": "Mittimatalik",
		"province": "Nunavut",
		"provinceAbb": "NU",
		"region": "northern",
		"latitude":  72.700117,
		"longitude": -77.958531,
		"start": "1962",
		"end": "1970",
		"id": "S-31"
	}, {
		"type": "School",
		"title": "Residential School",
		"locationName": "All Saints (Aklavik Anglican)",
		"schoolID": "aklavik",
		"placeName": "Aklavik",
		"province": "Northwest Territories",
		"provinceAbb": "NT",
		"region": "northwestern",
		"latitude": 68.2209972222222 ,
		"longitude": -135.00754444444445 ,
		"start": "1936",
		"end": "1959",
		"id": "S-7"
	}, {
		"type": "School",
		"title": "Residential School",
		"locationName": "Fleming Hall (St. Matthew's Anglican Hostel)",
		"schoolID": "flemingHall",
		"placeName": "Fort McPherson",
		"province": "Northwest Territories",
		"provinceAbb": "NT",
		"region": "northwestern",
		"latitude": 67.4369222222222 ,
		"longitude": -134.8817888888889 ,
		"start": "1955",
		"end": "1976",
		"id": "S-8"
	}, {
		"type": "School",
		"title": "Residential School",
		"locationName": "Sacred Heart (Providence Mission)",
		"schoolID": "sacredHeartProvidence",
		"placeName": "Fort Providence",
		"province": "Northwest Territories",
		"provinceAbb": "NT",
		"region": "southern",
		"latitude": 61.35563611111111 ,
		"longitude": -117.66648055555557 ,
		"start": "1906",
		"end": "1960",
		"id": "S-9"
	}, {
		"type": "School",
		"title": "Residential School",
		"locationName": "St. Joseph's (Fort Resolution)",
		"schoolID": "fortResolution",
		"placeName": "Fort Resolution",
		"province": "Northwest Territories",
		"provinceAbb": "NT",
		"region": "southern",
		"latitude": 61.1674166666666 ,
		"longitude": -113.66141111111112 ,
		"start": "1903",
		"end": "1957",
		"id": "S-10"
	}, {
		"type": "School",
		"title": "Residential School",
		"locationName": "Bompas Hall (Koe Go Cho)",
		"schoolID": "bompasHall",
		"placeName": "Fort Simpson",
		"province": "Northwest Territories",
		"provinceAbb": "NT",
		"region": "southwestern",
		"latitude": 61.8667083333333 ,
		"longitude": -121.35900277777777 ,
		"start": "1960",
		"end": "1975",
		"id": "S-11"
	}, {
		"type": "School",
		"title": "Residential School",
		"locationName": "Lapointe Hall (Deh Cho Hall)",
		"schoolID": "lapointeHall",
		"placeName": "Fort Simpson",
		"province": "Northwest Territories",
		"provinceAbb": "NT",
		"region": "southwestern",
		"latitude": 61.866708333333335 ,
		"longitude": -121.35900277777777 ,
		"start": "1960",
		"end": "1988",
		"id": "S-12"
	}, {
		"type": "School",
		"title": "Residential School",
		"locationName": "Breynat Hall (Fort Smith Hostel)",
		"schoolID": "breynatHall",
		"placeName": "Fort Smith",
		"province": "Northwest Territories",
		"provinceAbb": "NT",
		"region": "southern",
		"latitude": 60.0065388888888 ,
		"longitude": -111.89332777777778 ,
		"start": "1957",
		"end": "1975",
		"id": "S-13"
	}, {
		"type": "School",
		"title": "Residential School",
		"locationName": "Grandin College",
		"schoolID": "grandin",
		"placeName": "Fort Smith",
		"province": "Northwest Territories",
		"provinceAbb": "NT",
		"region": "southern",
		"latitude": 60.00223888888889 ,
		"longitude": -111.89820277777778 ,
		"start": "1960",
		"end": "1985",
		"id": "S-14"
	}, {
		"type": "School",
		"title": "Residential School",
		"locationName": "Hay River (All Saints)",
		"schoolID": "hayRiver",
		"placeName": "Hay River",
		"province": "Northwest Territories",
		"provinceAbb": "NT",
		"region": "southern",
		"latitude": 60.85754444444444 ,
		"longitude": -115.72266111111111 ,
		"start": "1895",
		"end": "1937",
		"id": "S-15"
	}, {
		"type": "School",
		"title": "Residential School",
		"locationName": "Grollier Hall (Notre-Dame Residence)",
		"schoolID": "grollier",
		"placeName": "Inuvik",
		"province": "Northwest Territories",
		"provinceAbb": "NT",
		"region": "northwestern",
		"latitude": 68.3581388888888 ,
		"longitude": -133.71765833333333 ,
		"start": "1959",
		"end": "1997",
		"id": "S-16"
	}, {
		"type": "School",
		"title": "Residential School",
		"locationName": "Stringer Hall (Inuvik Anglican Hostel)",
		"schoolID": "stringerHall",
		"placeName": "Inuvik",
		"province": "Northwest Territories",
		"provinceAbb": "NT",
		"region": "northwestern",
		"latitude": 68.3581138888888 ,
		"longitude": -133.71768055555555 ,
		"start": "1959",
		"end": "1975",
		"id": "S-17"
	}, {
		"type": "School",
		"title": "Residential School",
		"locationName": "Akaitcho Hall  (Yellowknife Federal Hostel)",
		"schoolID": "akaitcho",
		"placeName": "Yellowknife",
		"province": "Northwest Territories",
		"provinceAbb": "NT",
		"region": "central",
		"latitude": 62.4530722222222 ,
		"longitude": -114.36136666666665 ,
		"start": "1958",
		"end": "1994",
		"id": "S-18"
	}, {
		"type": "School",
		"title": "Residential School",
		"locationName": "Federal Hostel at Fort Franklin",
		"schoolID": "fortFranklin",
		"placeName": "Déline",
		"province": "Northwest Territories",
		"provinceAbb": "NT",
		"region": "central",
		"latitude": 65.1863888888889 ,
		"longitude": -123.42342777777779 ,
		"start": "1967",
		"end": "1972",
		"id": "S-131"
	}, {
		"type": "School",
		"title": "Residential School",
		"locationName": "Bishop Horden Hall (Moose Factory)",
		"schoolID": "bishopHordenHall",
		"placeName": "Moose Island",
		"latitude": 51.24976388888889 ,
		"longitude": -80.61425 ,
		"start": "1906",
		"end": "1976",
		"id": "S-104"
	}, {
		"type": "School",
		"title": "Residential School",
		"locationName": "Cecilia Jeffrey (Shoal Lake)",
		"schoolID": "ceciliaJeffrey",
		"placeName": "Kenora",
		"province": "Ontario",
		"provinceAbb": "ON",
		"region": "western",
		"latitude": 49.78279722222222 ,
		"longitude": -94.4401 ,
		"start": "1902",
		"end": "1976",
		"id": "S-105"
	}, {
		"type": "School",
		"title": "Residential School",
		"locationName": "Chapleau (St. John's)",
		"schoolID": "chapleau",
		"placeName": "Chapleau",
		"province": "Ontario",
		"provinceAbb": "ON",
		"region": "central",
		"latitude": 47.8178083333333 ,
		"longitude": -83.39447777777778 ,
		"start": "1907",
		"end": "1948",
		"id": "S-106"
	}, {
		"type": "School",
		"title": "Residential School",
		"locationName": "Cristal Lake High School",
		"schoolID": "cristalLake",
		"placeName": "Cristal Lake",
		"province": "Ontario",
		"provinceAbb": "ON",
		"region": "western",
		"latitude": 52.11318055555556 ,
		"longitude": -90.08484999999999 ,
		"start": "1976",
		"end": "1986",
		"id": "S-139"
	}, {
		"type": "School",
		"title": "Residential School",
		"locationName": "Fort Frances (Coochiching)",
		"schoolID": "fortFrances",
		"placeName": "Fort Frances",
		"province": "Ontario",
		"provinceAbb": "ON",
		"region": "western",
		"latitude": 48.628816666666665 ,
		"longitude": -93.35896388888888 ,
		"start": "1906",
		"end": "1974",
		"id": "S-107"
	}, {
		"type": "School",
		"title": "Residential School",
		"locationName": "Fort William (St. Joseph's)",
		"schoolID": "fortWilliam",
		"placeName": "Fort William",
		"province": "Ontario",
		"provinceAbb": "ON",
		"region": "central",
		"latitude": 48.3808472222222 ,
		"longitude": -89.25665 ,
		"start": "1885",
		"end": "1970",
		"id": "S-108"
	}, {
		"type": "School",
		"title": "Residential School",
		"locationName": "McIntosh (Kenora)",
		"schoolID": "mcIntosh",
		"placeName": "McIntosh",
		"province": "Ontario",
		"provinceAbb": "ON",
		"region": "western",
		"latitude": 49.96018611111111 ,
		"longitude": -93.61131666666667 ,
		"start": "1925",
		"end": "1969",
		"id": "S-109"
	}, {
		"type": "School",
		"title": "Residential School",
		"locationName": "Mohawk Institute (Mechanic's Institute)",
		"schoolID": "mohawk",
		"placeName": "Brantford",
		"province": "Ontario",
		"provinceAbb": "ON",
		"region": "southern",
		"latitude": 43.1260194444444 ,
		"longitude": -80.24200277777778 ,
		"start": "1885",
		"end": "1970",
		"id": "S-110"
	}, {
		"type": "School",
		"title": "Residential School",
		"locationName": "Mount Elgin (Muncey)",
		"schoolID": "mountElgin",
		"placeName": "Munceytown",
		"province": "Ontario",
		"provinceAbb": "ON",
		"region": "southern",
		"latitude": 42.79652222222222 ,
		"longitude": -81.43461111111111 ,
		"start": "1867",
		"end": "1946",
		"id": "S-111"
	}, {
		"type": "School",
		"title": "Residential School",
		"locationName": "Pelican Lake (Pelican Falls)",
		"schoolID": "pelicanLake",
		"placeName": "Sioux Lookout",
		"province": "Ontario",
		"provinceAbb": "ON",
		"region": "western",
		"latitude": 50.12052777777778 ,
		"longitude": -92.01173055555556 ,
		"start": "1927",
		"end": "1978",
		"id": "S-112"
	}, {
		"type": "School",
		"title": "Residential School",
		"locationName": "Poplar Hill",
		"schoolID": "poplarHill",
		"placeName": "Poplar Hill",
		"province": "Ontario",
		"provinceAbb": "ON",
		"region": "northwestern",
		"latitude": 52.0999250,
		"longitude": -94.3018806,
		"start": "1962",
		"end": "1989",
		"id": "S-113"
	}, {
		"type": "School",
		"title": "Residential School",
		"locationName": "St. Anne's (Fort Albany)",
		"schoolID": "stAnnes",
		"placeName": "Fort Albany",
		"province": "Ontario",
		"provinceAbb": "ON",
		"region": "northern",
		"latitude": 52.2062861,
		"longitude": -81.6903528,
		"start": "1906",
		"end": "1976",
		"id": "S-114"
	}, {
		"type": "School",
		"title": "Residential School",
		"locationName": "St. Mary's (St. Anthony's)",
		"schoolID": "stAnthonys",
		"placeName": "Kenora",
		"province": "Ontario",
		"provinceAbb": "ON",
		"region": "western",
		"latitude": 49.744347222222224 ,
		"longitude": -94.48271111111112 ,
		"start": "1897",
		"end": "1972",
		"id": "S-115"
	}, {
		"type": "School",
		"title": "Residential School",
		"locationName": "Shingwauk (Wawanosh)",
		"schoolID": "shingwauk",
		"placeName": "Sault Ste. Marie",
		"province": "Ontario",
		"provinceAbb": "ON",
		"region": "central",
		"latitude": 46.501083333333334 ,
		"longitude": -84.2872111111111 ,
		"start": "1878",
		"end": "1970",
		"id": "S-116"
	}, {
		"type": "School",
		"title": "Residential School",
		"locationName": "Spanish Boys School (St. Peter Claver)",
		"schoolID": "spanishBoys",
		"placeName": "Spanish",
		"province": "Ontario",
		"provinceAbb": "ON",
		"region": "central",
		"latitude": 46.18703333333333 ,
		"longitude": -82.35684722222221 ,
		"start": "1879",
		"end": "1958",
		"id": "S-117"
	}, {
		"type": "School",
		"title": "Residential School",
		"locationName": "Spanish Girls School (St. Anne's)",
		"schoolID": "spanishGirls",
		"placeName": "Spanish",
		"province": "Ontario",
		"provinceAbb": "ON",
		"region": "central",
		"latitude": 46.1869305555555 ,
		"longitude": -82.35567499999999 ,
		"start": "1868",
		"end": "1962",
		"id": "S-118"
	}, {
		"type": "School",
		"title": "Residential School",
		"locationName": "Stirland Lake High School (Wahbon Bay Academy)",
		"schoolID": "stirlandLake",
		"placeName": "Stirland Lake",
		"province": "Ontario",
		"provinceAbb": "ON",
		"region": "western",
		"latitude": 52.34647777777778 ,
		"longitude": -91.0247 ,
		"start": "1971",
		"end": "1991",
		"id": "S-138"
	}, {
		"type": "School",
		"title": "Residential School",
		"locationName": "Wawanosh Home",
		"schoolID": "wawanoshHome",
		"placeName": "Sault Ste. Marie",
		"province": "Ontario",
		"provinceAbb": "ON",
		"region": "central",
		"latitude": 46.52921944444444 ,
		"longitude": -84.344875 ,
		"start": "1879",
		"end": "1892",
		"id": "S-137"
	}, {
		"type": "School",
		"title": "Residential School",
		"locationName": "Amos (Saint-Marc-de-Figuery)",
		"schoolID": "amos",
		"placeName": "Amos",
		"province": "Québec",
		"provinceAbb": "QC",
		"region": "western",
		"latitude": 48.442077777777776 ,
		"longitude": -78.04351666666666 ,
		"start": "1955",
		"end": "1973",
		"id": "S-119"
	}, {
		"type": "School",
		"title": "Residential School",
		"locationName": "Pointe Bleue",
		"schoolID": "pointeBleue",
		"placeName": "Pointe Bleue",
		"province": "Québec",
		"provinceAbb": "QC",
		"region": "central",
		"latitude": 48.577672222222226 ,
		"longitude": -72.231475 ,
		"start": "1960",
		"end": "1991",
		"id": "S-120"
	}, {
		"type": "School",
		"title": "Residential School",
		"locationName": "La Tuque",
		"schoolID": "laTuque",
		"placeName": "La Tuque",
		"province": "Québec",
		"provinceAbb": "QC",
		"region": "southern",
		"latitude": 47.44733055555555 ,
		"longitude": -72.78200833333334 ,
		"start": "1963",
		"end": "1978",
		"id": "S-121"
	}, {
		"type": "School",
		"title": "Residential School",
		"locationName": "Fort George Church of England (St. Philip's)",
		"schoolID": "stPhilips",
		"placeName": "Fort George",
		"province": "Québec",
		"provinceAbb": "QC",
		"region": "western",
		"latitude": 53.830738888888895 ,
		"longitude": -78.98974722222222 ,
		"start": "1933",
		"end": "1975",
		"id": "S-122"
	}, {
		"type": "School",
		"title": "Residential School",
		"locationName": "Fort George Roman Catholic (Residence Couture)",
		"schoolID": "fortGeorgeCouture",
		"placeName": "Fort George",
		"province": "Québec",
		"provinceAbb": "QC",
		"region": "western",
		"latitude": 53.830738888888895 ,
		"longitude": -78.98974722222222 ,
		"start": "1937",
		"end": "1981",
		"id": "S-123"
	}, {
		"type": "School",
		"title": "Residential School",
		"locationName": "Sept-Iles (Maliotenam)",
		"schoolID": "septIles",
		"placeName": "Sept-Iles",
		"province": "Québec",
		"provinceAbb": "QC",
		"region": "southeastern",
		"latitude": 50.21333333333334 ,
		"longitude": -66.20710277777778 ,
		"start": "1952",
		"end": "1971",
		"id": "S-124"
	}, {
		"type": "School",
		"title": "Residential School",
		"locationName": "Federal Hostel at George River (Kangiqsualujjuaq)",
		"schoolID": "georgeRiver",
		"placeName": "Kangirsualujjuaq",
		"province": "Québec",
		"provinceAbb": "QC",
		"region": "northern",
		"latitude": 58.6924444444444 ,
		"longitude": -65.95375555555556 ,
		"start": "1960",
		"end": "1960",
		"id": "S-125"
	}, {
		"type": "School",
		"title": "Residential School",
		"locationName": "Federal Hostel at Great Whale River (Poste-de-la-Baleine)",
		"schoolID": "greatWhaleRiver",
		"placeName": "Kuujjuaraapik / Whapmagoostui",
		"province": "Québec",
		"provinceAbb": "QC",
		"region": "northwestern",
		"latitude": 55.2745888888888 ,
		"longitude": -77.763786,
		"start": "1960",
		"end": "1970",
		"id": "S-126"
	}, {
		"type": "School",
		"title": "Residential School",
		"locationName": "Federal Hostel at Payne Bay (Bellin)",
		"schoolID": "payneBay",
		"placeName": "Kangirsuk",
		"province": "Québec",
		"provinceAbb": "QC",
		"region": "northern",
		"latitude": 60.01557777777778 ,
		"longitude": -70.01038055555556 ,
		"start": "1960",
		"end": "1962",
		"id": "S-127"
	}, {
		"type": "School",
		"title": "Residential School",
		"locationName": "Federal Hostel at Port Harrison (Inoucdjouac)",
		"schoolID": "PortHarrison",
		"placeName": "Inukjuak",
		"province": "Québec",
		"provinceAbb": "QC",
		"region": "northwestern",
		"latitude": 58.452802777777784 ,
		"longitude": -78.11154722222221 ,
		"start": "1960",
		"end": "1971",
		"id": "S-128"
	}, {
		"type": "School",
		"title": "Residential School",
		"locationName": "Fort George Hostels",
		"schoolID": "fortGeorge",
		"placeName": "Fort George",
		"province": "Québec",
		"provinceAbb": "QC",
		"region": "western",
		"latitude": 53.830911111111114 ,
		"longitude": -78.98991944444444 ,
		"start": "1975",
		"end": "1978",
		"id": "S-136"
	}, {
		"type": "School",
		"title": "Residential School",
		"locationName": "Mistassini Hostels",
		"schoolID": "mistassini",
		"placeName": "Mistassini",
		"province": "Québec",
		"provinceAbb": "QC",
		"region": "central",
		"latitude": 48.5766722222222 ,
		"longitude": -72.23239722222222 ,
		"start": "1971",
		"end": "1978",
		"id": "S-140"
	}, {
		"type": "School",
		"title": "Residential School",
		"locationName": "Beauval (Ile a la Crosse)",
		"schoolID": "beauval",
		"placeName": "Beauval",
		"province": "Saskatchewan",
		"provinceAbb": "SK",
		"region": "central",
		"latitude": 55.15725 ,
		"longitude": -107.58172222222221 ,
		"start": "1897",
		"end": "1995",
		"id": "S-74"
	}, {
		"type": "School",
		"title": "Residential School",
		"locationName": "Crowstand",
		"schoolID": "crowstand",
		"placeName": "Kamsack",
		"province": "Saskatchewan",
		"provinceAbb": "SK",
		"region": "southeastern",
		"latitude": 51.527975 ,
		"longitude": -101.84322777777777 ,
		"start": "1889",
		"end": "1915",
		"id": "S-75"
	}, {
		"type": "School",
		"title": "Residential School",
		"locationName": "File Hills",
		"schoolID": "fileHills",
		"placeName": "Balcarres",
		"province": "Saskatchewan",
		"provinceAbb": "SK",
		"region": "southern",
		"latitude": 50.935069444444444 ,
		"longitude": -103.50555 ,
		"start": "1889",
		"end": "1949",
		"id": "S-76"
	}, {
		"type": "School",
		"title": "Residential School",
		"locationName": "Fort Pelly (St. Philip's)",
		"schoolID": "fortPelly",
		"placeName": "Fort Pelly",
		"province": "Saskatchewan",
		"provinceAbb": "SK",
		"region": "eastern",
		"latitude": 51.714 ,
		"longitude": -101.89620000000001 ,
		"start": "1905",
		"end": "1913",
		"id": "S-98"
	}, {
		"type": "School",
		"title": "Residential School",
		"locationName": "Gordon's",
		"schoolID": "gordons",
		"placeName": "Punnichy (Gordon's Reserve)",
		"province": "Saskatchewan",
		"provinceAbb": "SK",
		"region": "southern",
		"latitude": 51.28932777777778 ,
		"longitude": -104.296975 ,
		"start": "1888",
		"end": "1996",
		"id": "S-77"
	}, {
		"type": "School",
		"title": "Residential School",
		"locationName": "Lebret (Qu'Appelle)",
		"schoolID": "lebret",
		"placeName": "Lebret",
		"province": "Saskatchewan",
		"provinceAbb": "SK",
		"region": "southern",
		"latitude": 50.75785 ,
		"longitude": -103.71157222222223 ,
		"start": "1884",
		"end": "1998",
		"id": "S-78"
	}, {
		"type": "School",
		"title": "Residential School",
		"locationName": "Marieval (Cowesess)",
		"schoolID": "marieval",
		"placeName": "Grayson",
		"province": "Saskatchewan",
		"provinceAbb": "SK",
		"region": "southeastern",
		"latitude": 50.58074166666667 ,
		"longitude": -102.65333333333334 ,
		"start": "1898",
		"end": "1997",
		"id": "S-79"
	}, {
		"type": "School",
		"title": "Residential School",
		"locationName": "Muscowequan (Touchwood)",
		"schoolID": "muscowequan",
		"placeName": "Lestock",
		"province": "Saskatchewan",
		"provinceAbb": "SK",
		"region": "central",
		"latitude": 51.3414166666666 ,
		"longitude": -104.02925833333333 ,
		"start": "1889",
		"end": "1997",
		"id": "S-80"
	}, {
		"type": "School",
		"title": "Residential School",
		"locationName": "Prince Albert",
		"schoolID": "princeAlbert",
		"placeName": "Prince Albert",
		"province": "Saskatchewan",
		"provinceAbb": "SK",
		"region": "central",
		"latitude": 53.19320277777778 ,
		"longitude": -105.77296388888888 ,
		"start": "1894",
		"end": "1997",
		"id": "S-81"
	}, {
		"type": "School",
		"title": "Residential School",
		"locationName": "Regina",
		"schoolID": "regina",
		"placeName": "Regina",
		"province": "Saskatchewan",
		"provinceAbb": "SK",
		"region": "southern",
		"latitude": 50.4659388888888 ,
		"longitude": -104.69364166666666 ,
		"start": "1891",
		"end": "1910",
		"id": "S-83"
	}, {
		"type": "School",
		"title": "Residential School",
		"locationName": "Round Lake",
		"schoolID": "roundLake",
		"placeName": "Stockholm",
		"province": "Saskatchewan",
		"provinceAbb": "SK",
		"region": "southeastern",
		"latitude": 50.5262972222222 ,
		"longitude": -102.310575 ,
		"start": "1887",
		"end": "1950",
		"id": "S-84"
	}, {
		"type": "School",
		"title": "Residential School",
		"locationName": "St. Anthony's (Sacred Heart)",
		"schoolID": "sacredHeart",
		"placeName": "Onion Lake",
		"province": "Saskatchewan",
		"provinceAbb": "SK",
		"region": "western",
		"latitude": 53.6380777777777 ,
		"longitude": -109.97870833333333 ,
		"start": "1894",
		"end": "1974",
		"id": "S-85"
	}, {
		"type": "School",
		"title": "Residential School",
		"locationName": "St. Michael's (Duck Lake)",
		"schoolID": "duckLake",
		"placeName": "Duck Lake",
		"province": "Saskatchewan",
		"provinceAbb": "SK",
		"region": "central",
		"latitude": 52.79979722222222 ,
		"longitude": -106.23264722222223 ,
		"start": "1894",
		"end": "1996",
		"id": "S-86"
	}, {
		"type": "School",
		"title": "Residential School",
		"locationName": "St. Philip's",
		"schoolID": "kamsack",
		"placeName": "Kamsack",
		"province": "Saskatchewan",
		"provinceAbb": "SK",
		"region": "eastern",
		"latitude": 51.7139333333333 ,
		"longitude": -101.90646666666667 ,
		"start": "1928",
		"end": "1969",
		"id": "S-87"
	}, {
		"type": "School",
		"title": "Residential School",
		"locationName": "Sturgeon Landing",
		"schoolID": "sturgeonLanding",
		"placeName": "Sturgeon Landing",
		"province": "Saskatchewan",
		"provinceAbb": "SK",
		"region": "eastern",
		"latitude": 54.2743888888888 ,
		"longitude": -101.82122777777778 ,
		"start": "1926",
		"end": "1952",
		"id": "S-88"
	}, {
		"type": "School",
		"title": "Residential School",
		"locationName": "Thunderchild (St. Henri)",
		"schoolID": "thunderchild",
		"placeName": "Delmas",
		"province": "Saskatchewan",
		"provinceAbb": "SK",
		"region": "western",
		"latitude": 52.9321027777777 ,
		"longitude": -108.59755 ,
		"start": "1901",
		"end": "1948",
		"id": "S-89"
	}, {
		"type": "School",
		"title": "Residential School",
		"locationName": "Cote Improved Federal Day School (School #604)",
		"schoolID": "coteImprovedFederal",
		"placeName": "Kamsack",
		"province": "Saskatchewan",
		"provinceAbb": "SK",
		"region": "eastern",
		"latitude": 51.6393333333333 ,
		"longitude": -101.91098055555557 ,
		"start": "1928",
		"end": "1940",
		"id": "S-134"
	}, {
		"type": "School",
		"title": "Residential School",
		"locationName": "Battleford",
		"schoolID": "battleford",
		"placeName": "Battleford",
		"province": "Saskatchewan",
		"provinceAbb": "SK",
		"region": "western",
		"latitude": 52.7120527777777 ,
		"longitude": -108.30874722222222 ,
		"start": "1883",
		"end": "1914",
		"id": "S-135"
	}, {
		"type": "School",
		"title": "Residential School",
		"locationName": "Lac La Ronge (All Saints)",
		"schoolID": "lacLaRonge",
		"placeName": "Lac La Ronge",
		"province": "Saskatchewan",
		"provinceAbb": "SK",
		"region": "central",
		"latitude": 55.0999916666666 ,
		"longitude": -105.29122777777778 ,
		"start": "1894",
		"end": "1997",
		"id": "S-82"
	}, {
		"type": "School",
		"title": "Residential School",
		"locationName": "Carcross (Chooutla)",
		"schoolID": "carcross",
		"placeName": "Carcross",
		"province": "Yukon",
		"provinceAbb": "YT",
		"region": "southern",
		"latitude": 60.1761333333333 ,
		"longitude": -134.67606666666666 ,
		"start": "1903",
		"end": "1969",
		"id": "S-1"
	}, {
		"type": "School",
		"title": "Residential School",
		"locationName": "Coudert Hall (Whitehorse Hostel)",
		"schoolID": "coudertHall",
		"placeName": "Whitehorse",
		"province": "Yukon",
		"provinceAbb": "YT",
		"region": "southern",
		"latitude": 60.7043833333333 ,
		"longitude": -135.03717777777777 ,
		"start": "1960",
		"end": "1971",
		"id": "S-2"
	}, {
		"type": "School",
		"title": "Residential School",
		"locationName": "Shingle Point (St. John's)",
		"placeName": "Shingle Point",
		"schoolID": "shinglePoint",
		"province": "Yukon",
		"provinceAbb": "YT",
		"region": "northern",
		"latitude": 68.9794583333333 ,
		"longitude": -137.40254166666668 ,
		"start": "1929",
		"end": "1936",
		"id": "S-3"
	}, {
		"type": "School",
		"title": "Residential School",
		"locationName": "Whitehorse Baptist (Lee School)",
		"schoolID": "whitehorse",
		"placeName": "Whitehorse",
		"province": "Yukon",
		"provinceAbb": "YT",
		"region": "southern",
		"latitude": 60.7166083333333 ,
		"longitude": -135.05449444444446 ,
		"start": "1947",
		"end": "1960",
		"id": "S-4"
	}, {
		"type": "School",
		"title": "Residential School",
		"locationName": "Yukon Hall (Whitehorse)",
		"schoolID": "yukonHall",
		"placeName": "Whitehorse",
		"province": "Yukon",
		"provinceAbb": "YT",
		"region": "southern",
		"latitude": 60.7052472222222 ,
		"longitude": -135.03760555555556 ,
		"start": "1960",
		"end": "1985",
		"id": "S-5"
	}, {
		"type": "School",
		"title": "Residential School",
		"locationName": "St. Paul's Hostel",
		"schoolID": "dawson",
		"placeName": "Dawson City",
		"province": "Yukon",
		"provinceAbb": "YT",
		"region": "western",
		"latitude": 64.0561305555555 ,
		"longitude": -139.43424166666668 ,
		"start": "1920",
		"end": "1943",
		"id": "S-132"
	}],
	"hearings":[{
		"type": "Hearing",
		"title": "Calgary Hearing",
		"placeName": "Calgary",
		"latitude": 51.07745,
		"longitude": -114.003825,
		"start": "2013/11/04",
		"end": "2013/11/05",
		"id": "E-1"
	}, {
		"type": "Hearing",
		"title": "Kamloops Hearing",
		"placeName": "Kamloops",
		"latitude": 50.68170833,
		"longitude": -120.2978667,
		"start": "2013/05/28",
		"end": "2013/05/29",
		"id": "E-10"
	}, {
		"type": "Hearing",
		"title": "Port Alberni Hearing",
		"placeName": "Port Alberni",
		"latitude": 49.26124167,
		"longitude": -124.8406417,
		"start": "2012/03/12",
		"end": "2012/03/13",
		"id": "E-11"
	}, {
		"type": "Hearing",
		"title": "Port Hardy Hearing",
		"placeName": "Port Hardy",
		"latitude": 50.69471667,
		"longitude": -127.4075889,
		"start": "2012/02/27",
		"end": "2012/02/28",
		"id": "E-12"
	}, {
		"type": "Hearing",
		"title": "Prince George Hearing",
		"placeName": "Prince George",
		"latitude": 53.91237778,
		"longitude": -122.748825,
		"start": "2013/05/13",
		"end": "2013/05/14",
		"id": "E-13"
	}, {
		"type": "Hearing",
		"title": "Terrace Hearing",
		"placeName": "Terrace",
		"latitude": 54.52263889,
		"longitude": -128.6669389,
		"start": "2013/06/25",
		"end": "2013/06/26",
		"id": "E-14"
	}, {
		"type": "Event",
		"title": "BC National Event",
		"placeName": "Vancouver",
		"latitude": 49.28240833,
		"longitude": -123.0428167,
		"start": "2013/09/18",
		"end": "2013/09/21",
		"id": "E-15"
	}, {
		"type": "Event",
		"title": "Victoria Regional Event",
		"placeName": "Victoria",
		"latitude": 48.42048333,
		"longitude": -123.3663833,
		"start": "2013/04/13",
		"end": "2013/04/14",
		"id": "E-16"
	}, {
		"type": "Hearing",
		"title": "Williams Lake Hearing",
		"placeName": "Williams Lake",
		"latitude": 52.15047222,
		"longitude": -122.1537028,
		"start": "2013/05/16",
		"end": "2013/05/18",
		"id": "E-17"
	}, {
		"type": "Hearing",
		"title": "Garden Hill Hearing",
		"placeName": "Garden Hill",
		"latitude": 53.86988611,
		"longitude": -94.6468,
		"start": "2013/02/19",
		"end": "2013/02/20",
		"id": "E-18"
	}, {
		"type": "Hearing",
		"title": "Sagkeeng Hearing",
		"placeName": "Sagkeeng",
		"latitude": 50.56911944,
		"longitude": -96.20188056,
		"start": "2012/10/02",
		"end": "2012/10/03",
		"id": "E-19"
	}, {
		"type": "Event",
		"title": "Alberta National Event",
		"placeName": "Edmonton",
		"latitude": 53.54145833,
		"longitude": -113.4860861,
		"start": "2014/03/27",
		"end": "2014/03/30",
		"id": "E-2"
	}, {
		"type": "Hearing",
		"title": "Thompson Hearing",
		"placeName": "Thompson",
		"latitude": 55.75775278,
		"longitude": -97.83067778,
		"start": "2012/09/25",
		"end": "2012/09/26",
		"id": "E-20"
	}, {
		"type": "Event",
		"title": "Winnipeg National Event",
		"placeName": "Winnipeg",
		"latitude": 49.88786111,
		"longitude": -97.12956389,
		"start": "2010/06/16",
		"end": "2010/06/19",
		"id": "E-21"
	}, {
		"type": "Hearing",
		"title": "Fredericton Hearing",
		"placeName": "Fredericton",
		"latitude": 45.96561944,
		"longitude": -66.65593056,
		"start": "2011/09/08",
		"end": "2011/09/08",
		"id": "E-22"
	}, {
		"type": "Hearing",
		"title": "Goose Bay Hearing",
		"placeName": "Goose Bay",
		"latitude": 53.29674444,
		"longitude": -60.32704167,
		"start": "2011/09/20",
		"end": "2011/09/20",
		"id": "E-23"
	}, {
		"type": "Hearing",
		"title": "Hopedale Hearing",
		"placeName": "Hopedale",
		"latitude": 55.459925,
		"longitude": -60.211425,
		"start": "2011/09/22",
		"end": "2011/09/23",
		"id": "E-24"
	}, {
		"type": "Hearing",
		"title": "Eskasoni Hearing",
		"placeName": "Eskasoni",
		"latitude": 45.93035278,
		"longitude": -60.646775,
		"start": "2011/10/14",
		"end": "2011/10/14",
		"id": "E-25"
	}, {
		"type": "Event",
		"title": "Atlantic National Event",
		"placeName": "Halifax",
		"latitude": 44.64822778,
		"longitude": -63.57636667,
		"start": "2011/10/26",
		"end": "2011/10/29",
		"id": "E-26"
	}, {
		"type": "Hearing",
		"title": "Indian Brook Hearing",
		"placeName": "Indian Brook",
		"latitude": 45.09661111,
		"longitude": -63.49062778,
		"start": "2011/10/12",
		"end": "2011/10/12",
		"id": "E-27"
	}, {
		"type": "Hearing",
		"title": "Aklavik Hearing",
		"placeName": "Aklavik",
		"latitude": 68.22072778,
		"longitude": -135.0060417,
		"start": "2011/05/12",
		"end": "2011/05/12",
		"id": "E-28"
	}, {
		"type": "Hearing",
		"title": "Behchoko Hearing",
		"placeName": "Behchoko",
		"latitude": 62.82741111,
		"longitude": -116.0578917,
		"start": "2011/04/15",
		"end": "2011/04/15",
		"id": "E-29"
	}, {
		"type": "Hearing",
		"title": "High Level Hearing",
		"placeName": "High Level",
		"latitude": 58.50773333,
		"longitude": -117.1353528,
		"start": "2013/07/03",
		"end": "2013/07/04",
		"id": "E-3"
	}, {
		"type": "Hearing",
		"title": "Fort Providence Hearing",
		"placeName": "Fort Providence",
		"latitude": 61.35800556,
		"longitude": -117.6599278,
		"start": "2011/04/26",
		"end": "2011/04/27",
		"id": "E-30"
	}, {
		"type": "Hearing",
		"title": "Fort Resolution Hearing",
		"placeName": "Fort Resolution",
		"latitude": 61.17203056,
		"longitude": -113.6737806,
		"start": "2011/04/28",
		"end": "2011/04/28",
		"id": "E-31"
	}, {
		"type": "Hearing",
		"title": "Fort Simpson Hearing",
		"placeName": "Fort Simpson",
		"latitude": 61.862846,
		"longitude": -121.356779,
		"start": "2011/11/23",
		"end": "2011/11/23",
		"id": "E-32"
	}, {
		"type": "Hearing",
		"title": "Fort Smith Hearing",
		"placeName": "Fort Smith",
		"latitude": 60.00230556,
		"longitude": -111.8925,
		"start": "2011/05/06",
		"end": "2011/05/06",
		"id": "E-33"
	}, {
		"type": "Hearing",
		"title": "Hay River (Katlodeeche) Hearing",
		"placeName": "Hay River (Katlodeeche)",
		"latitude": 60.817375,
		"longitude": -115.7801556,
		"start": "2012/03/07",
		"end": "2012/03/08",
		"id": "E-34"
	}, {
		"type": "Event",
		"title": "Northern National Event",
		"placeName": "Inuvik",
		"latitude": 68.35915833,
		"longitude": -133.7183806,
		"start": "2011/06/28",
		"end": "2011/07/01",
		"id": "E-35"
	}, {
		"type": "Hearing",
		"title": "Paulatuk Hearing",
		"placeName": "Paulatuk",
		"latitude": 69.351225,
		"longitude": -124.0682389,
		"start": "2012/04/17",
		"end": "2012/04/18",
		"id": "E-36"
	}, {
		"type": "Hearing",
		"title": "Sachs Harbour Hearing",
		"placeName": "Sachs Harbour",
		"latitude": 71.98512222,
		"longitude": -125.2464833,
		"start": "2012/04/16",
		"end": "2012/04/16",
		"id": "E-37"
	}, {
		"type": "Hearing",
		"title": "Tuktoyaktuk Hearing",
		"placeName": "Tuktoyaktuk",
		"latitude": 69.44329167,
		"longitude": -133.0255361,
		"start": "2012/04/11",
		"end": "2012/04/11",
		"id": "E-38"
	}, {
		"type": "Hearing",
		"title": "Tulita Hearing",
		"placeName": "Tulita",
		"latitude": 64.08075,
		"longitude": -126.3358444,
		"start": "2011/05/10",
		"end": "2011/05/10",
		"id": "E-39"
	}, {
		"type": "Hearing",
		"title": "Hobbema Hearing",
		"placeName": "Hobbema",
		"latitude": 52.81274722,
		"longitude": -113.5518611,
		"start": "2013/07/24",
		"end": "2013/07/25",
		"id": "E-4"
	}, {
		"type": "Hearing",
		"title": "Ulukhatok Hearing",
		"placeName": "Ulukhatok",
		"latitude": 70.73704444,
		"longitude": -117.7704583,
		"start": "2012/04/14",
		"end": "2012/04/14",
		"id": "E-40"
	}, {
		"type": "Hearing",
		"title": "Yellowknife Hearing",
		"placeName": "Yellowknife",
		"latitude": 62.44113889,
		"longitude": -114.3988528,
		"start": "2011/04/14",
		"end": "2011/04/14",
		"id": "E-41"
	}, {
		"type": "Hearing",
		"title": "Baker Lake Hearing",
		"placeName": "Baker Lake",
		"latitude": 64.31284167,
		"longitude": -96.05746667,
		"start": "2011/11/15",
		"end": "2011/11/15",
		"id": "E-42"
	}, {
		"type": "Hearing",
		"title": "Cambridge Bay Hearing",
		"placeName": "Cambridge Bay",
		"latitude": 69.11761944,
		"longitude": -105.0537889,
		"start": "2011/04/11",
		"end": "2011/04/11",
		"id": "E-43"
	}, {
		"type": "Hearing",
		"title": "Chesterfield Inlet Hearing",
		"placeName": "Chesterfield Inlet",
		"latitude": 63.34111667,
		"longitude": -90.70085,
		"start": "2011/03/22",
		"end": "2011/03/22",
		"id": "E-44"
	}, {
		"type": "Hearing",
		"title": "Gjoa Haven Hearing",
		"placeName": "Gjoa Haven",
		"latitude": 68.63059444,
		"longitude": -95.85782222,
		"start": "2012/09/19",
		"end": "2012/09/19",
		"id": "E-45"
	}, {
		"type": "Hearing",
		"title": "Igloolik Hearing",
		"placeName": "Igloolik",
		"latitude": 69.37250556,
		"longitude": -81.82465,
		"start": "2011/03/23",
		"end": "2011/03/24",
		"id": "E-46"
	}, {
		"type": "Hearing",
		"title": "Iqaluit Hearing",
		"placeName": "Iqaluit",
		"latitude": 63.74669167,
		"longitude": -68.51696667,
		"start": "2011/03/25",
		"end": "2011/03/25",
		"id": "E-47"
	}, {
		"type": "Hearing",
		"title": "Kugluktuk Hearing",
		"placeName": "Kugluktuk",
		"latitude": 67.82527222,
		"longitude": -115.09655,
		"start": "2011/04/12",
		"end": "2011/04/13",
		"id": "E-48"
	}, {
		"type": "Hearing",
		"title": "Pangnirtung Hearing",
		"placeName": "Pangnirtung",
		"latitude": 66.14799444,
		"longitude": -65.69823611,
		"start": "2012/02/13",
		"end": "2012/02/13",
		"id": "E-49"
	}, {
		"type": "Hearing",
		"title": "Lethbridge Hearing",
		"placeName": "Lethbridge",
		"latitude": 49.69455556,
		"longitude": -112.84545,
		"start": "2013/10/09",
		"end": "2013/10/10",
		"id": "E-5"
	}, {
		"type": "Hearing",
		"title": "Pond Inlet Hearing",
		"placeName": "Pond Inlet",
		"latitude": 72.69941389,
		"longitude": -77.9555,
		"start": "2012/02/07",
		"end": "2012/02/07",
		"id": "E-50"
	}, {
		"type": "Hearing",
		"title": "Qikiqtarjuaq Hearing",
		"placeName": "Qikiqtarjuaq",
		"latitude": 67.54387778,
		"longitude": -64.02909167,
		"start": "2012/02/15",
		"end": "2012/02/15",
		"id": "E-51"
	}, {
		"type": "Hearing",
		"title": "Rankin Inlet Hearing",
		"placeName": "Rankin Inlet",
		"latitude": 62.80906667,
		"longitude": -92.088875,
		"start": "2011/03/21",
		"end": "2011/03/21",
		"id": "E-52"
	}, {
		"type": "Hearing",
		"title": "Dryden Hearing",
		"placeName": "Dryden",
		"latitude": 49.79392222,
		"longitude": -93.19535,
		"start": "2012/11/22",
		"end": "2012/11/23",
		"id": "E-53"
	}, {
		"type": "Hearing",
		"title": "Fort Albany Hearing",
		"placeName": "Fort Albany",
		"latitude": 52.20709167,
		"longitude": -81.68788611,
		"start": "2013/01/28",
		"end": "2013/01/30",
		"id": "E-54"
	}, {
		"type": "Hearing",
		"title": "Manitoulin Island Hearing",
		"placeName": "Manitoulin Island",
		"latitude": 45.82631667,
		"longitude": -82.16168333,
		"start": "2012/10/25",
		"end": "2012/10/26",
		"id": "E-55"
	}, {
		"type": "Hearing",
		"title": "Thunder Bay Hearing",
		"placeName": "Thunder Bay",
		"latitude": 48.38075833,
		"longitude": -89.26563056,
		"start": "2012/12/04",
		"end": "2012/12/05",
		"id": "E-57"
	}, {
		"type": "Hearing",
		"title": "Charlottetown Hearing",
		"placeName": "Charlottetown",
		"latitude": 46.23414167,
		"longitude": -63.13088611,
		"start": "2011/10/04",
		"end": "2011/10/04",
		"id": "E-58"
	}, {
		"type": "Hearing",
		"title": "Chisasibi Hearing",
		"placeName": "Chisasibi",
		"latitude": 53.78248333,
		"longitude": -78.89232222,
		"start": "2013/03/19",
		"end": "2013/03/20",
		"id": "E-59"
	}, {
		"type": "Hearing",
		"title": "Red Deer Hearing",
		"placeName": "Red Deer",
		"latitude": 52.24673333,
		"longitude": -113.8262194,
		"start": "2013/06/06",
		"end": "2013/06/07",
		"id": "E-6"
	}, {
		"type": "Hearing",
		"title": "Inukjuak Hearing",
		"placeName": "Inukjuak",
		"latitude": 58.45185556,
		"longitude": -78.108725,
		"start": "2011/03/14",
		"end": "2011/03/14",
		"id": "E-60"
	}, {
		"type": "Hearing",
		"title": "Kuujjuaq Hearing",
		"placeName": "Kuujjuaq",
		"latitude": 58.10546944,
		"longitude": -68.40170833,
		"start": "2011/03/15",
		"end": "2011/03/16",
		"id": "E-62"
	}, {
		"type": "Hearing",
		"title": "La Tuque Hearing",
		"placeName": "La Tuque",
		"latitude": 47.43021944,
		"longitude": -72.78686944,
		"start": "2013/03/05",
		"end": "2013/03/06",
		"id": "E-63"
	}, {
		"type": "Event",
		"title": "Quebec National Event",
		"placeName": "Montreal",
		"latitude": 45.50045,
		"longitude": -73.56811389,
		"start": "2013/04/24",
		"end": "2013/04/27",
		"id": "E-64"
	}, {
		"type": "Hearing",
		"title": "Sept Iles Hearing",
		"placeName": "Sept Iles",
		"latitude": 50.226325,
		"longitude": -66.39806667,
		"start": "2013/01/22",
		"end": "2013/01/23",
		"id": "E-65"
	}, {
		"type": "Hearing",
		"title": "Val D'Or Hearing",
		"placeName": "Val D'Or",
		"latitude": 48.09878056,
		"longitude": -77.76588333,
		"start": "2013/02/05",
		"end": "2013/02/06",
		"id": "E-66"
	}, {
		"type": "Hearing",
		"title": "Buffalo River Hearing",
		"placeName": "Buffalo River",
		"latitude": 55.92815833,
		"longitude": -108.9366056,
		"start": "2012/07/03",
		"end": "2012/07/04",
		"id": "E-68"
	}, {
		"type": "Hearing",
		"title": "English River First Nation (Patuanak) Hearing",
		"placeName": "English River First Nation (Patuanak)",
		"latitude": 55.91666667,
		"longitude": -107.7166667,
		"start": "2012/10/29",
		"end": "2012/10/30",
		"id": "E-69"
	}, {
		"type": "Hearing",
		"title": "Slave Lake Hearing",
		"placeName": "Slave Lake",
		"latitude": 55.27444444,
		"longitude": -114.7788778,
		"start": "2013/06/18",
		"end": "2013/06/19",
		"id": "E-7"
	}, {
		"type": "Hearing",
		"title": "Fort Qu'Appelle Hearing",
		"placeName": "Fort Qu'Appelle",
		"latitude": 50.76104722,
		"longitude": -103.7868333,
		"start": "2012/05/14",
		"end": "2012/05/15",
		"id": "E-70"
	}, {
		"type": "Hearing",
		"title": "Ile-a-la-Crosse Hearing",
		"placeName": "Ile-a-la-Crosse",
		"latitude": 55.43937778,
		"longitude": -107.9020028,
		"start": "2012/11/01",
		"end": "2012/11/01",
		"id": "E-71"
	}, {
		"type": "Hearing",
		"title": "Key First Nation Hearing",
		"placeName": "Key First Nation",
		"latitude": 51.88616667,
		"longitude": -102.10905,
		"start": "2012/01/20",
		"end": "2012/01/22",
		"id": "E-72"
	}, {
		"type": "Hearing",
		"title": "La Ronge Hearing",
		"placeName": "La Ronge",
		"latitude": 55.10624,
		"longitude": -105.285061,
		"start": "2012/06/05",
		"end": "2012/06/07",
		"id": "E-73"
	}, {
		"type": "Hearing",
		"title": "Lebret Hearing",
		"placeName": "Lebret",
		"latitude": 50.75905278,
		"longitude": -103.7109917,
		"start": "2011/12/01",
		"end": "2011/12/01",
		"id": "E-74"
	}, {
		"type": "Hearing",
		"title": "North Battleford Hearing",
		"placeName": "North Battleford",
		"latitude": 52.76856944,
		"longitude": -108.3013694,
		"start": "2012/09/10",
		"end": "2012/09/11",
		"id": "E-75"
	}, {
		"type": "Hearing",
		"title": "Onion Lake Hearing",
		"placeName": "Onion Lake",
		"latitude": 53.71837778,
		"longitude": -110.0034972,
		"start": "2012/04/03",
		"end": "2012/04/05",
		"id": "E-76"
	}, {
		"type": "Hearing",
		"title": "Pelican Narrows Hearing",
		"placeName": "Pelican Narrows",
		"latitude": 55.17045833,
		"longitude": -102.9396556,
		"start": "2012/02/13",
		"end": "2012/02/14",
		"id": "E-77"
	}, {
		"type": "Hearing",
		"title": "Prince Albert Hearing",
		"placeName": "Prince Albert",
		"latitude": 53.20005833,
		"longitude": -105.7514917,
		"start": "2012/01/31",
		"end": "2012/02/02",
		"id": "E-78"
	}, {
		"type": "Hearing",
		"title": "Regina Hearing",
		"placeName": "Regina",
		"latitude": 50.41933611,
		"longitude": -104.5821556,
		"start": "2012/01/16",
		"end": "2012/01/18",
		"id": "E-79"
	}, {
		"type": "Hearing",
		"title": "Campbell River Hearing",
		"placeName": "Campbell River",
		"latitude": 50.03183889,
		"longitude": -125.2533583,
		"start": "2012/03/01",
		"end": "2012/03/02",
		"id": "E-8"
	}, {
		"type": "Event",
		"title": "Saskatchewan National Event",
		"placeName": "Saskatoon",
		"latitude": 52.09905,
		"longitude": -106.677075,
		"start": "2012/06/21",
		"end": "2012/06/24",
		"id": "E-80"
	}, {
		"type": "Hearing",
		"title": "Stony Rapids Hearing",
		"placeName": "Stony Rapids",
		"latitude": 59.25666389,
		"longitude": -105.8326694,
		"start": "2012/02/16",
		"end": "2012/02/17",
		"id": "E-81"
	}, {
		"type": "Event",
		"title": "Yukon Regional Event",
		"placeName": "Whitehorse",
		"latitude": 60.72481389,
		"longitude": -135.0526111,
		"start": "2013/01/14",
		"end": "2013/01/15",
		"id": "E-82"
	}, {
		"type": "Hearing",
		"title": "Dawson City Hearing",
		"placeName": "Dawson City",
		"latitude": 64.064725,
		"longitude": -139.4314944,
		"start": "2011/05/24",
		"end": "2011/05/24",
		"id": "E-83"
	}, {
		"type": "Hearing",
		"title": "Watson Lake Hearing",
		"placeName": "Watson Lake",
		"latitude": 60.0648,
		"longitude": -128.7141444,
		"start": "2011/05/25",
		"end": "2011/05/25",
		"id": "E-84"
	}, {
		"type": "Hearing",
		"title": "Whitehorse Hearing",
		"placeName": "Whitehorse",
		"latitude": 60.71902222,
		"longitude": -135.1071889,
		"start": "2011/05/26",
		"end": "2011/05/27",
		"id": "E-85"
	}, {
		"type": "Hearing",
		"title": "Cowichan (Duncan) Hearing",
		"placeName": "Cowichan (Duncan)",
		"latitude": 48.77353889,
		"longitude": -123.7016639,
		"start": "2012/03/15",
		"end": "2012/03/16",
		"id": "E-9"
	}],
	"reservations": [
	  {
	    "reserve": "Abitibi-Dominion",
	    "id": "abitibiDominion",
	    "lat": 48.7645722,
	    "lng": -74.0158713
	  },
	  {
	    "reserve": "Abitibi-Ontario",
	    "id": "abitibiOntario",
	    "lat": 49.024506,
	    "lng": -80.8822129
	  },
	  {
	    "reserve": "Adams Lake",
	    "id": "adamsLake",
	    "lat": 51.1746684,
	    "lng": -119.5707686
	  },
	  {
	    "reserve": "Ahousaht",
	    "id": "ahousaht",
	    "lat": 49.2761659,
	    "lng": -126.0563673
	  },
	  {
	    "reserve": "Aishihik",
	    "id": "aishihik",
	    "lat": 61.600204,
	    "lng": -137.509432
	  },
	  {
	    "reserve": "Aiyansh",
	    "id": "aiyansh",
	    "lat": 55.20578,
	    "lng": -129.07833
	  },
	  {
	    "reserve": "Aklavik",
	    "id": "aklavik",
	    "lat": 68.219916,
	    "lng": -135.007788
	  },
	  {
	    "reserve": "Albany",
	    "id": "albany",
	    "lat": 46.286052,
	    "lng": -63.643834
	  },
	  {
	    "reserve": "Alert Bay",
	    "id": "alertBay",
	    "lat": 50.5844855,
	    "lng": -126.9254093
	  },
	  {
	    "reserve": "Alexander",
	    "id": "alexander",
	    "lat": 49.829851,
	    "lng": -100.295269
	  },
	  {
	    "reserve": "Alexandria",
	    "id": "alexandria",
	    "lat": 45.3111798,
	    "lng": -74.6367158
	  },
	  {
	    "reserve": "Alexis",
	    "id": "alexis",
	    "lat": 53.748889,
	    "lng": -114.486389
	  },
	  {
	    "reserve": "Alexis Creek",
	    "id": "alexisCreek",
	    "lat": 52.082986,
	    "lng": -123.277992
	  },
	  {
	    "reserve": "Alkali Lake",
	    "id": "alkaliLake",
	    "lat": 51.788563,
	    "lng": -122.228337
	  },
	  {
	    "reserve": "Amadjuak",
	    "id": "amadjuak",
	    "lat": 64.016667,
	    "lng": -72.65
	  },
	  {
	    "reserve": "Amos",
	    "id": "amos",
	    "lat": 48.5650196,
	    "lng": -78.1125205
	  },
	  {
	    "reserve": "Anahim Lake",
	    "id": "anahimLake",
	    "lat": 52.466667,
	    "lng": -125.316667
	  },
	  {
	    "reserve": "Anderson Lake",
	    "id": "andersonLake",
	    "lat": 50.635632,
	    "lng": -122.4127527
	  },
	  {
	    "reserve": "Anzac",
	    "id": "anzac",
	    "lat": 56.448899,
	    "lng": -111.036765
	  },
	  {
	    "reserve": "Arctic Bay",
	    "id": "arcticBay",
	    "lat": 73.037575,
	    "lng": -85.148031
	  },
	  {
	    "reserve": "Arctic Red River",
	    "id": "arcticRedRiver",
	    "lat": 67.450577,
	    "lng": -133.711807
	  },
	  {
	    "reserve": "Arrandale",
	    "id": "arrandale",
	    "lat": 54.96735,
	    "lng": -130.012894
	  },
	  {
	    "reserve": "Arrow",
	    "id": "arrow",
	    "lat": 49.2449287,
	    "lng": -122.9723898
	  },
	  {
	    "reserve": "Ashcroft",
	    "id": "ashcroft",
	    "lat": 50.7259246,
	    "lng": -121.2804736
	  },
	  {
	    "reserve": "Assabaska",
	    "id": "assabaska",
	    "lat": 48.9859626,
	    "lng": -94.3882656
	  },
	  {
	    "reserve": "Athelmer",
	    "id": "athelmer",
	    "lat": 50.517378,
	    "lng": -116.036891
	  },
	  {
	    "reserve": "Atikameg",
	    "id": "atikameg",
	    "lat": 55.908325,
	    "lng": -115.638719
	  },
	  {
	    "reserve": "Atlin",
	    "id": "atlin",
	    "lat": 59.578028,
	    "lng": -133.689524
	  },
	  {
	    "reserve": "Atlin-Teslin",
	    "id": "atlin-Teslin",
	    "lat": 59.5588937,
	    "lng": -133.690772
	  },
	  {
	    "reserve": "Attawapiscat",
	    "id": "attawapiscat",
	    "lat": 52.9258846,
	    "lng": -82.4288922
	  },
	  {
	    "reserve": "Attikameks de la Mauricie",
	    "id": "attikameksdelaMauricie",
	    "lat": 46.856049,
	    "lng": -71.35304
	  },
	  {
	    "reserve": "Avatuktoo",
	    "id": "avatuktoo",
	    "lat": 66.25,
	    "lng": -66.3166667
	  },
	  {
	    "reserve": "Babine",
	    "id": "babine",
	    "lat": 55.5633426,
	    "lng": -127.1887685
	  },
	  {
	    "reserve": "Baffin Island",
	    "id": "baffinIsland",
	    "lat": 65.4215054,
	    "lng": -70.9654211
	  },
	  {
	    "reserve": "Baker Lake",
	    "id": "bakerLake",
	    "lat": 64.317604,
	    "lng": -96.022001
	  },
	  {
	    "reserve": "Bala",
	    "id": "bala",
	    "lat": 45.016543,
	    "lng": -79.615314
	  },
	  {
	    "reserve": "Banks Island",
	    "id": "banksIsland",
	    "lat": 73.0758199,
	    "lng": -120.7232954
	  },
	  {
	    "reserve": "Barriere",
	    "id": "barriere",
	    "lat": 51.1824784,
	    "lng": -120.1237108
	  },
	  {
	    "reserve": "Bathhurst Inlet",
	    "id": "bathhurstInlet",
	    "lat": 66.8660679,
	    "lng": -108.1046072
	  },
	  {
	    "reserve": "Battleford",
	    "id": "battleford",
	    "lat": 52.7362682,
	    "lng": -108.3052431
	  },
	  {
	    "reserve": "Bear Lake",
	    "id": "bearLake",
	    "lat": 65.9179578,
	    "lng": -120.8193382
	  },
	  {
	    "reserve": "Bearspaw",
	    "id": "bearspaw",
	    "lat": 51.138655,
	    "lng": -114.311164
	  },
	  {
	    "reserve": "Beaver Lake",
	    "id": "beaverLake",
	    "lat": 54.6929547,
	    "lng": -111.779194
	  },
	  {
	    "reserve": "Beecher Bay",
	    "id": "beecherBay",
	    "lat": 48.3376824,
	    "lng": -123.6066705
	  },
	  {
	    "reserve": "Belcher Islands",
	    "id": "belcherIslands",
	    "lat": 56.19632,
	    "lng": -78.877357
	  },
	  {
	    "reserve": "Bella Bella",
	    "id": "bellaBella",
	    "lat": 52.1605419,
	    "lng": -128.1455793
	  },
	  {
	    "reserve": "Bella Coola",
	    "id": "bellaCoola",
	    "lat": 52.3721277,
	    "lng": -126.7539346
	  },
	  {
	    "reserve": "Berkley Point",
	    "id": "berkleyPoint",
	    "lat": 49.856777,
	    "lng": -97.303483
	  },
	  {
	    "reserve": "Bernard Harbour",
	    "id": "bernardHarbour",
	    "lat": 68.7653957,
	    "lng": -114.7093159
	  },
	  {
	    "reserve": "Bernard Island",
	    "id": "bernardIsland",
	    "lat": 49.4863406,
	    "lng": -124.2758774
	  },
	  {
	    "reserve": "Bersimis",
	    "id": "bersimis",
	    "lat": 48.930611,
	    "lng": -68.706749
	  },
	  {
	    "reserve": "Big Stone",
	    "id": "bigStone",
	    "lat": 51.2261529,
	    "lng": -111.190182
	  },
	  {
	    "reserve": "Birtle",
	    "id": "birtle",
	    "lat": 50.4221254,
	    "lng": -101.0449519
	  },
	  {
	    "reserve": "Blackfoot",
	    "id": "blackfoot",
	    "lat": 53.288219,
	    "lng": -110.175376
	  },
	  {
	    "reserve": "Blackwater",
	    "id": "blackwater",
	    "lat": 44.233878,
	    "lng": -79.051564
	  },
	  {
	    "reserve": "Blood",
	    "id": "blood",
	    "lat": 45.3813128,
	    "lng": -75.7460188
	  },
	  {
	    "reserve": "Bon Accord",
	    "id": "bonAccord",
	    "lat": 53.8372598,
	    "lng": -113.4121256
	  },
	  {
	    "reserve": "Bonaparte",
	    "id": "bonaparte",
	    "lat": 45.5032731,
	    "lng": -73.5560354
	  },
	  {
	    "reserve": "Boothroyd",
	    "id": "boothroyd",
	    "lat": 49.965278,
	    "lng": -121.483333
	  },
	  {
	    "reserve": "Bootkia Peninsula",
	    "id": "bootkiaPeninsula",
	    "lat": 70.5,
	    "lng": -94.5
	  },
	  {
	    "reserve": "Boston Bar",
	    "id": "bostonBar",
	    "lat": 49.8634258,
	    "lng": -121.4425737
	  },
	  {
	    "reserve": "Boyer River",
	    "id": "boyerRiver",
	    "lat": 58.4464436,
	    "lng": -116.7135787
	  },
	  {
	    "reserve": "Brantford",
	    "id": "brantford",
	    "lat": 43.1393867,
	    "lng": -80.2644254
	  },
	  {
	    "reserve": "Bridge River",
	    "id": "bridgeRiver",
	    "lat": 50.813116,
	    "lng": -122.0598313
	  },
	  {
	    "reserve": "Broughton Island",
	    "id": "broughtonIsland",
	    "lat": 67.524849,
	    "lng": -63.766102
	  },
	  {
	    "reserve": "Brunswick",
	    "id": "brunswick",
	    "lat": 46.0829249,
	    "lng": -65.5705759
	  },
	  {
	    "reserve": "Burns Lake",
	    "id": "burnsLake",
	    "lat": 54.2334148,
	    "lng": -125.763613
	  },
	  {
	    "reserve": "Burrard",
	    "id": "burrard",
	    "lat": 49.279878,
	    "lng": -123.127695
	  },
	  {
	    "reserve": "Burwash",
	    "id": "burwash",
	    "lat": 46.233333,
	    "lng": -80.85
	  },
	  {
	    "reserve": "Byron Bay",
	    "id": "byronBay",
	    "lat": 68.75378,
	    "lng": -109.08184
	  },
	  {
	    "reserve": "Calgary",
	    "id": "calgary",
	    "lat": 51.0486151,
	    "lng": -114.0708459
	  },
	  {
	    "reserve": "Callihoo Band",
	    "id": "callihooBand",
	    "lat": 54.042,
	    "lng": -112.81
	  },
	  {
	    "reserve": "Calling Lake",
	    "id": "callingLake",
	    "lat": 55.210335,
	    "lng": -113.193325
	  },
	  {
	    "reserve": "Cambridge Bay",
	    "id": "cambridgeBay",
	    "lat": 69.1168641,
	    "lng": -105.0596814
	  },
	  {
	    "reserve": "Campbell River",
	    "id": "campbellRiver",
	    "lat": 50.0331226,
	    "lng": -125.2733354
	  },
	  {
	    "reserve": "Canim Lake",
	    "id": "canimLake",
	    "lat": 51.774437,
	    "lng": -120.930601
	  },
	  {
	    "reserve": "Canoe Creek",
	    "id": "canoeCreek",
	    "lat": 51.4689844,
	    "lng": -122.1548902
	  },
	  {
	    "reserve": "Canyon City",
	    "id": "canyonCity",
	    "lat": 60.6291175,
	    "lng": -134.7673393
	  },
	  {
	    "reserve": "Canyon Creek",
	    "id": "canyonCreek",
	    "lat": 55.371739,
	    "lng": -115.08826
	  },
	  {
	    "reserve": "Cape Croke",
	    "id": "capeCroke",
	    "lat": 44.922911,
	    "lng": -81.021299
	  },
	  {
	    "reserve": "Cape Dyer",
	    "id": "capeDyer",
	    "lat": 66.665374,
	    "lng": -61.358524
	  },
	  {
	    "reserve": "Cape Mudge",
	    "id": "capeMudge",
	    "lat": 49.9966002,
	    "lng": -125.1876382
	  },
	  {
	    "reserve": "Cape Parry",
	    "id": "capeParry",
	    "lat": 70.2,
	    "lng": -124.5833333
	  },
	  {
	    "reserve": "Capilano",
	    "id": "capilano",
	    "lat": 53.5545551,
	    "lng": -113.4244465
	  },
	  {
	    "reserve": "Carcross",
	    "id": "carcross",
	    "lat": 60.1675851,
	    "lng": -134.7073506
	  },
	  {
	    "reserve": "Cardston",
	    "id": "cardston",
	    "lat": 49.1950663,
	    "lng": -113.301798
	  },
	  {
	    "reserve": "Carlton",
	    "id": "carlton",
	    "lat": 45.3875812,
	    "lng": -75.6960202
	  },
	  {
	    "reserve": "Carmacks",
	    "id": "carmacks",
	    "lat": 62.088468,
	    "lng": -136.28729
	  },
	  {
	    "reserve": "Carriers",
	    "id": "carriers",
	    "lat": 51.0269942,
	    "lng": -114.0316034
	  },
	  {
	    "reserve": "Carry the Kettle",
	    "id": "carrytheKettle",
	    "lat": 50.3543074,
	    "lng": -103.4679039
	  },
	  {
	    "reserve": "Casca",
	    "id": "casca",
	    "lat": 60.71878,
	    "lng": -135.052929
	  },
	  {
	    "reserve": "Cassiar",
	    "id": "cassiar",
	    "lat": 59.28215,
	    "lng": -129.816895
	  },
	  {
	    "reserve": "Champagne",
	    "id": "champagne",
	    "lat": 60.789428,
	    "lng": -136.471353
	  },
	  {
	    "reserve": "Chapleau",
	    "id": "chapleau",
	    "lat": 47.8423282,
	    "lng": -83.4026108
	  },
	  {
	    "reserve": "Chard",
	    "id": "chard",
	    "lat": 55.845505,
	    "lng": -110.905504
	  },
	  {
	    "reserve": "Cheam",
	    "id": "cheam",
	    "lat": 49.1866666,
	    "lng": -121.6816666
	  },
	  {
	    "reserve": "Chehalis",
	    "id": "chehalis",
	    "lat": 49.2984479,
	    "lng": -121.9044574
	  },
	  {
	    "reserve": "Chemainus",
	    "id": "chemainus",
	    "lat": 48.9301648,
	    "lng": -123.7344814
	  },
	  {
	    "reserve": "Cheslatta",
	    "id": "cheslatta",
	    "lat": 53.816667,
	    "lng": -125.8
	  },
	  {
	    "reserve": "Chesterfield Inlet",
	    "id": "chesterfieldInlet",
	    "lat": 63.346514,
	    "lng": -90.736827
	  },
	  {
	    "reserve": "Chilcotin",
	    "id": "chilcotin",
	    "lat": 51.9219332,
	    "lng": -122.9310895
	  },
	  {
	    "reserve": "Chilliwack",
	    "id": "chilliwack",
	    "lat": 49.1579401,
	    "lng": -121.9514666
	  },
	  {
	    "reserve": "Chiniquay",
	    "id": "chiniquay",
	    "lat": 43.5646757,
	    "lng": -81.702628
	  },
	  {
	    "reserve": "Chipewyan",
	    "id": "chipewyan",
	    "lat": 58.719637,
	    "lng": -111.140697
	  },
	  {
	    "reserve": "Chochrane",
	    "id": "chochrane",
	    "lat": 51.1909883,
	    "lng": -114.4678603
	  },
	  {
	    "reserve": "Churchill",
	    "id": "churchill",
	    "lat": 58.7684112,
	    "lng": -94.164964
	  },
	  {
	    "reserve": "Cisco",
	    "id": "cisco",
	    "lat": 53.544932,
	    "lng": -113.4931207
	  },
	  {
	    "reserve": "Clayoquot",
	    "id": "clayoquot",
	    "lat": 49.1573644,
	    "lng": -125.9322765
	  },
	  {
	    "reserve": "Clifton Point",
	    "id": "cliftonPoint",
	    "lat": 43.0908436,
	    "lng": -79.0754576
	  },
	  {
	    "reserve": "Clinton",
	    "id": "clinton",
	    "lat": 43.6172804,
	    "lng": -81.5393953
	  },
	  {
	    "reserve": "Clo'oose",
	    "id": "clooose",
	    "lat": 48.6533779,
	    "lng": -124.804508
	  },
	  {
	    "reserve": "Clyde River",
	    "id": "clydeRiver",
	    "lat": 70.476365,
	    "lng": -68.601265
	  },
	  {
	    "reserve": "Cochrane",
	    "id": "cochrane",
	    "lat": 51.1909883,
	    "lng": -114.4678603
	  },
	  {
	    "reserve": "Cold Lake",
	    "id": "coldLake",
	    "lat": 54.4643173,
	    "lng": -110.1731468
	  },
	  {
	    "reserve": "Coldwater",
	    "id": "coldwater",
	    "lat": 44.7099419,
	    "lng": -79.643778
	  },
	  {
	    "reserve": "Columbia Lake",
	    "id": "columbiaLake",
	    "lat": 50.1812569,
	    "lng": -115.8356386
	  },
	  {
	    "reserve": "Colville Lake",
	    "id": "colvilleLake",
	    "lat": 67.0386393,
	    "lng": -126.0881066
	  },
	  {
	    "reserve": "Comox",
	    "id": "comox",
	    "lat": 49.6735133,
	    "lng": -124.9282659
	  },
	  {
	    "reserve": "Conklin",
	    "id": "conklin",
	    "lat": 55.631388,
	    "lng": -111.083884
	  },
	  {
	    "reserve": "Contwoyto Lake",
	    "id": "contwoytoLake",
	    "lat": 65.697541,
	    "lng": -110.8324552
	  },
	  {
	    "reserve": "Cook's Ferry",
	    "id": "cooksFerry",
	    "lat": 50.422669,
	    "lng": -121.345091
	  },
	  {
	    "reserve": "Coppermine",
	    "id": "coppermine",
	    "lat": 67.813457,
	    "lng": -115.0812529
	  },
	  {
	    "reserve": "Coquitlam",
	    "id": "coquitlam",
	    "lat": 49.2837626,
	    "lng": -122.7932065
	  },
	  {
	    "reserve": "Coral Harbour",
	    "id": "coralHarbour",
	    "lat": 64.138834,
	    "lng": -83.169897
	  },
	  {
	    "reserve": "Cote",
	    "id": "cote",
	    "lat": 51.5219688,
	    "lng": -101.7978998
	  },
	  {
	    "reserve": "Cowessess",
	    "id": "cowessess",
	    "lat": 50.5802752,
	    "lng": -102.6614974
	  },
	  {
	    "reserve": "Cowichan",
	    "id": "cowichan",
	    "lat": 48.7569005,
	    "lng": -124.0309983
	  },
	  {
	    "reserve": "Cranbrook",
	    "id": "cranbrook",
	    "lat": 49.5129678,
	    "lng": -115.7694002
	  },
	  {
	    "reserve": "Cree",
	    "id": "cree",
	    "lat": 43.7148083,
	    "lng": -79.6255139
	  },
	  {
	    "reserve": "Creekside",
	    "id": "creekside",
	    "lat": 52.367111,
	    "lng": -114.934558
	  },
	  {
	    "reserve": "Crooked Lake",
	    "id": "crookedLake",
	    "lat": 52.275562,
	    "lng": -120.725326
	  },
	  {
	    "reserve": "Crowfoot",
	    "id": "crowfoot",
	    "lat": 51.1260443,
	    "lng": -114.2021513
	  },
	  {
	    "reserve": "Dawson",
	    "id": "dawson",
	    "lat": 64.0600696,
	    "lng": -139.4320347
	  },
	  {
	    "reserve": "Day Star",
	    "id": "dayStar",
	    "lat": 32.861916,
	    "lng": -97.106502
	  },
	  {
	    "reserve": "Deadman's Creek",
	    "id": "deadmansCreek",
	    "lat": 42.9235499,
	    "lng": -81.3431098
	  },
	  {
	    "reserve": "Dease Lake",
	    "id": "deaseLake",
	    "lat": 58.43741,
	    "lng": -129.999378
	  },
	  {
	    "reserve": "Deazadeash Lake",
	    "id": "deazadeashLake",
	    "lat": 60.4602199,
	    "lng": -137.0030273
	  },
	  {
	    "reserve": "Decker Lake",
	    "id": "deckerLake",
	    "lat": 54.293395,
	    "lng": -125.833358
	  },
	  {
	    "reserve": "Deer Lake",
	    "id": "deerLake",
	    "lat": 49.1731682,
	    "lng": -57.4338728
	  },
	  {
	    "reserve": "Delta",
	    "id": "delta",
	    "lat": 49.0952155,
	    "lng": -123.0264759
	  },
	  {
	    "reserve": "Desmaris",
	    "id": "desmaris",
	    "lat": 55.9459547,
	    "lng": -113.8006274
	  },
	  {
	    "reserve": "DEW Line",
	    "id": "dEWLine",
	    "lat": 43.133924,
	    "lng": -76.213059
	  },
	  {
	    "reserve": "Dog Creek",
	    "id": "dogCreek",
	    "lat": 51.581613,
	    "lng": -122.237828
	  },
	  {
	    "reserve": "Dog Rib",
	    "id": "dogRib",
	    "lat": 57.135203,
	    "lng": -122.3184407
	  },
	  {
	    "reserve": "Dorset",
	    "id": "dorset",
	    "lat": 45.2444301,
	    "lng": -78.8939439
	  },
	  {
	    "reserve": "Drift Pile",
	    "id": "driftPile",
	    "lat": 55.333333,
	    "lng": -115.766667
	  },
	  {
	    "reserve": "Duck Lake",
	    "id": "duckLake",
	    "lat": 52.8118546,
	    "lng": -106.2260275
	  },
	  {
	    "reserve": "Duncon's",
	    "id": "duncons",
	    "lat": 44.5006533,
	    "lng": -63.5312323
	  },
	  {
	    "reserve": "Eastmain",
	    "id": "eastmain",
	    "lat": 52.233724,
	    "lng": -78.517759
	  },
	  {
	    "reserve": "Ebb",
	    "id": "ebb",
	    "lat": 51.0260446,
	    "lng": -99.0388668
	  },
	  {
	    "reserve": "Edmonton",
	    "id": "edmonton",
	    "lat": 53.544389,
	    "lng": -113.4909267
	  },
	  {
	    "reserve": "Edmonton Agency",
	    "id": "edmontonAgency",
	    "lat": 53.5426424,
	    "lng": -113.4866434
	  },
	  {
	    "reserve": "Ehatishat",
	    "id": "ehatishat",
	    "lat": 49.90811,
	    "lng": -126.8743
	  },
	  {
	    "reserve": "Eldorado",
	    "id": "eldorado",
	    "lat": 59.557323,
	    "lng": -108.499825
	  },
	  {
	    "reserve": "Enderby",
	    "id": "enderby",
	    "lat": 50.5508499,
	    "lng": -119.1396705
	  },
	  {
	    "reserve": "Enoch",
	    "id": "enoch",
	    "lat": 53.5104488,
	    "lng": -113.6970316
	  },
	  {
	    "reserve": "Ermineskin",
	    "id": "ermineskin",
	    "lat": 53.4574816,
	    "lng": -113.5060584
	  },
	  {
	    "reserve": "Eskimo Point",
	    "id": "eskimoPoint",
	    "lat": 61.1078279,
	    "lng": -94.0623691
	  },
	  {
	    "reserve": "Euchinico",
	    "id": "euchinico",
	    "lat": 53.2175288,
	    "lng": -123.5060941
	  },
	  {
	    "reserve": "File Hills",
	    "id": "fileHills",
	    "lat": 50.757432,
	    "lng": -103.789275
	  },
	  {
	    "reserve": "Findlay River",
	    "id": "findlayRiver",
	    "lat": 57.2716338,
	    "lng": -125.9358404
	  },
	  {
	    "reserve": "Finlay Forks",
	    "id": "finlayForks",
	    "lat": 55.7999901,
	    "lng": -123.6400102
	  },
	  {
	    "reserve": "Finlay River",
	    "id": "finlayRiver",
	    "lat": 57.2716338,
	    "lng": -125.9358404
	  },
	  {
	    "reserve": "Fisher",
	    "id": "fisher",
	    "lat": 53.033333,
	    "lng": -105.45
	  },
	  {
	    "reserve": "Fishing Lake",
	    "id": "fishingLake",
	    "lat": 51.8333333,
	    "lng": -103.5333333
	  },
	  {
	    "reserve": "Fitzgarals Smith",
	    "id": "fitzgaralsSmith",
	    "lat": 59.8591456,
	    "lng": -111.6024877
	  },
	  {
	    "reserve": "Flow",
	    "id": "flow",
	    "lat": 53.4815535,
	    "lng": -113.4802396
	  },
	  {
	    "reserve": "Forestdale/Forest Dale",
	    "id": "forestdale/ForestDale",
	    "lat": 54.4135506,
	    "lng": -126.1612649
	  },
	  {
	    "reserve": "Fort Albany",
	    "id": "fortAlbany",
	    "lat": 52.207757,
	    "lng": -81.684454
	  },
	  {
	    "reserve": "Fort Alexander",
	    "id": "fortAlexander",
	    "lat": 50.610446,
	    "lng": -96.298722
	  },
	  {
	    "reserve": "Fort Babine",
	    "id": "fortBabine",
	    "lat": 55.3248763,
	    "lng": -126.6123885
	  },
	  {
	    "reserve": "Fort Chimo",
	    "id": "fortChimo",
	    "lat": 58.102996,
	    "lng": -68.418839
	  },
	  {
	    "reserve": "Fort Chipewyan",
	    "id": "fortChipewyan",
	    "lat": 58.719637,
	    "lng": -111.140697
	  },
	  {
	    "reserve": "Fort Connelly",
	    "id": "fortConnelly",
	    "lat": 56.195,
	    "lng": -126.841301
	  },
	  {
	    "reserve": "Fort Francis",
	    "id": "fortFrancis",
	    "lat": 48.6099494,
	    "lng": -93.3955282
	  },
	  {
	    "reserve": "Fort Franklin",
	    "id": "fortFranklin",
	    "lat": 65.188683,
	    "lng": -123.415802
	  },
	  {
	    "reserve": "Fort Fraser",
	    "id": "fortFraser",
	    "lat": 54.061971,
	    "lng": -124.552796
	  },
	  {
	    "reserve": "Fort George",
	    "id": "fortGeorge",
	    "lat": 43.250735,
	    "lng": -79.061212
	  },
	  {
	    "reserve": "Fort Good Hope",
	    "id": "fortGoodHope",
	    "lat": 66.2556759,
	    "lng": -128.634021
	  },
	  {
	    "reserve": "Fort Grahame",
	    "id": "fortGrahame",
	    "lat": 56.523981,
	    "lng": -124.472446
	  },
	  {
	    "reserve": "Fort Hope",
	    "id": "fortHope",
	    "lat": 51.556199,
	    "lng": -87.901846
	  },
	  {
	    "reserve": "Fort Liard",
	    "id": "fortLiard",
	    "lat": 60.2395738,
	    "lng": -123.4733158
	  },
	  {
	    "reserve": "Fort MacPherson",
	    "id": "fortMacPherson",
	    "lat": 67.436445,
	    "lng": -134.880755
	  },
	  {
	    "reserve": "Fort McKay",
	    "id": "fortMcKay",
	    "lat": 57.186758,
	    "lng": -111.636785
	  },
	  {
	    "reserve": "Fort McLeod",
	    "id": "fortMcLeod",
	    "lat": 49.7216792,
	    "lng": -113.4000408
	  },
	  {
	    "reserve": "Fort McPherson",
	    "id": "fortMcPherson",
	    "lat": 67.436445,
	    "lng": -134.880755
	  },
	  {
	    "reserve": "Fort Nelson",
	    "id": "fortNelson",
	    "lat": 58.8050174,
	    "lng": -122.697236
	  },
	  {
	    "reserve": "Fort Norman",
	    "id": "fortNorman",
	    "lat": 64.9012599,
	    "lng": -125.577904
	  },
	  {
	    "reserve": "Fort Providence",
	    "id": "fortProvidence",
	    "lat": 61.3576238,
	    "lng": -117.6606538
	  },
	  {
	    "reserve": "Fort Rae",
	    "id": "fortRae",
	    "lat": 62.8230147,
	    "lng": -115.9883081
	  },
	  {
	    "reserve": "Fort Resolution",
	    "id": "fortResolution",
	    "lat": 61.172054,
	    "lng": -113.673764
	  },
	  {
	    "reserve": "Fort Simpson",
	    "id": "fortSimpson",
	    "lat": 61.8627978,
	    "lng": -121.353033
	  },
	  {
	    "reserve": "Fort Smith",
	    "id": "fortSmith",
	    "lat": 60.00552,
	    "lng": -111.8849379
	  },
	  {
	    "reserve": "Fort St. James",
	    "id": "fortSt.James",
	    "lat": 54.4425721,
	    "lng": -124.2510475
	  },
	  {
	    "reserve": "Fort St. John",
	    "id": "fortSt.John",
	    "lat": 56.252423,
	    "lng": -120.846409
	  },
	  {
	    "reserve": "Fort Vermiliom",
	    "id": "fortVermiliom",
	    "lat": 58.3873325,
	    "lng": -116.0197006
	  },
	  {
	    "reserve": "Fort Ware",
	    "id": "fortWare",
	    "lat": 57.4230262,
	    "lng": -125.6270035
	  },
	  {
	    "reserve": "Fort William",
	    "id": "fortWilliam",
	    "lat": 48.3450222,
	    "lng": -89.3583181
	  },
	  {
	    "reserve": "Fort Wrigley",
	    "id": "fortWrigley",
	    "lat": 63.221472,
	    "lng": -123.454781
	  },
	  {
	    "reserve": "Fort Yukon",
	    "id": "fortYukon",
	    "lat": 66.56735,
	    "lng": -145.2513402
	  },
	  {
	    "reserve": "Forty Mile",
	    "id": "fortyMile",
	    "lat": 64.4238524,
	    "lng": -140.5331772
	  },
	  {
	    "reserve": "Fot Liard",
	    "id": "fotLiard",
	    "lat": 60.2395738,
	    "lng": -123.4733158
	  },
	  {
	    "reserve": "Fountain",
	    "id": "fountain",
	    "lat": 50.75216,
	    "lng": -121.893324
	  },
	  {
	    "reserve": "Fox Lake",
	    "id": "foxLake",
	    "lat": 58.4649348,
	    "lng": -114.5360857
	  },
	  {
	    "reserve": "Foxe Main",
	    "id": "foxeMain",
	    "lat": 45.337916,
	    "lng": -61.104313
	  },
	  {
	    "reserve": "Frances Lake",
	    "id": "francesLake",
	    "lat": 61.4497924,
	    "lng": -129.3969561
	  },
	  {
	    "reserve": "Fraser Lake",
	    "id": "fraserLake",
	    "lat": 54.0562303,
	    "lng": -124.8495549
	  },
	  {
	    "reserve": "Frobisher Bay",
	    "id": "frobisherBay",
	    "lat": 63.746693,
	    "lng": -68.5169669
	  },
	  {
	    "reserve": "Frog Lake",
	    "id": "frogLake",
	    "lat": 53.8321927,
	    "lng": -110.4020593
	  },
	  {
	    "reserve": "Ft. Vermillion",
	    "id": "ft.Vermillion",
	    "lat": 58.3873325,
	    "lng": -116.0197006
	  },
	  {
	    "reserve": "Ft.McPherson",
	    "id": "ft.McPherson",
	    "lat": 67.436445,
	    "lng": -134.880755
	  },
	  {
	    "reserve": "Gambler",
	    "id": "gambler",
	    "lat": 50.594309,
	    "lng": -101.3613699
	  },
	  {
	    "reserve": "Gibson",
	    "id": "gibson",
	    "lat": 44.604809,
	    "lng": -79.976451
	  },
	  {
	    "reserve": "Gilford Island",
	    "id": "gilfordIsland",
	    "lat": 50.7173101,
	    "lng": -126.3690612
	  },
	  {
	    "reserve": "Gitlakdamix",
	    "id": "gitlakdamix",
	    "lat": 55.191753,
	    "lng": -129.221334
	  },
	  {
	    "reserve": "Gjoa Haven",
	    "id": "gjoaHaven",
	    "lat": 68.6355559,
	    "lng": -95.849722
	  },
	  {
	    "reserve": "Gleichen",
	    "id": "gleichen",
	    "lat": 50.866153,
	    "lng": -113.051568
	  },
	  {
	    "reserve": "Glen Vowell",
	    "id": "glenVowell",
	    "lat": 55.3119575,
	    "lng": -127.6788854
	  },
	  {
	    "reserve": "Good Hope Lake",
	    "id": "goodHopeLake",
	    "lat": 59.281944,
	    "lng": -129.302778
	  },
	  {
	    "reserve": "Goodfish (Whitefish) Lake",
	    "id": "goodfish(Whitefish)Lake",
	    "lat": 54.2914827,
	    "lng": -111.8100769
	  },
	  {
	    "reserve": "Grand Rapids",
	    "id": "grandRapids",
	    "lat": 53.1841527,
	    "lng": -99.2678509
	  },
	  {
	    "reserve": "Great Whale River",
	    "id": "greatWhaleRiver",
	    "lat": 55.3,
	    "lng": -77.8
	  },
	  {
	    "reserve": "Greenville",
	    "id": "greenville",
	    "lat": 55.032217,
	    "lng": -129.58121
	  },
	  {
	    "reserve": "Grise Fiord",
	    "id": "griseFiord",
	    "lat": 76.4189856,
	    "lng": -82.9016082
	  },
	  {
	    "reserve": "Grouard",
	    "id": "grouard",
	    "lat": 55.523223,
	    "lng": -116.159278
	  },
	  {
	    "reserve": "Gwinaha",
	    "id": "gwinaha",
	    "lat": 55.1931242,
	    "lng": -129.2210841
	  },
	  {
	    "reserve": "Hagwilget",
	    "id": "hagwilget",
	    "lat": 55.2579695,
	    "lng": -127.5971465
	  },
	  {
	    "reserve": "Haida",
	    "id": "haida",
	    "lat": 51.922753,
	    "lng": -129.9173008
	  },
	  {
	    "reserve": "Haines Junction",
	    "id": "hainesJunction",
	    "lat": 60.7544541,
	    "lng": -137.5117818
	  },
	  {
	    "reserve": "Halfway",
	    "id": "halfway",
	    "lat": 45.41642,
	    "lng": -77.579818
	  },
	  {
	    "reserve": "Hall Beach",
	    "id": "hallBeach",
	    "lat": 68.772735,
	    "lng": -81.235208
	  },
	  {
	    "reserve": "Hartley Bay",
	    "id": "hartleyBay",
	    "lat": 53.423919,
	    "lng": -129.25351
	  },
	  {
	    "reserve": "Hay Lakes",
	    "id": "hayLakes",
	    "lat": 53.1964307,
	    "lng": -113.0547715
	  },
	  {
	    "reserve": "Hazelton",
	    "id": "hazelton",
	    "lat": 55.2568166,
	    "lng": -127.672002
	  },
	  {
	    "reserve": "Heart Lake",
	    "id": "heartLake",
	    "lat": 43.741033,
	    "lng": -79.7953518
	  },
	  {
	    "reserve": "Herschel Island",
	    "id": "herschelIsland",
	    "lat": 69.5794566,
	    "lng": -139.0762055
	  },
	  {
	    "reserve": "Hesquiaht",
	    "id": "hesquiaht",
	    "lat": 49.39422,
	    "lng": -126.465575
	  },
	  {
	    "reserve": "High Bar",
	    "id": "highBar",
	    "lat": 51.1093651,
	    "lng": -121.9894326
	  },
	  {
	    "reserve": "Hobbema Agency",
	    "id": "hobbemaAgency",
	    "lat": 52.8349731,
	    "lng": -113.4456396
	  },
	  {
	    "reserve": "Holman Island",
	    "id": "holmanIsland",
	    "lat": 70.6579503,
	    "lng": -117.7466991
	  },
	  {
	    "reserve": "Homalco",
	    "id": "homalco",
	    "lat": 49.9518844,
	    "lng": -125.2432712
	  },
	  {
	    "reserve": "Hope",
	    "id": "hope",
	    "lat": 49.3829931,
	    "lng": -121.4424751
	  },
	  {
	    "reserve": "Horse Lake",
	    "id": "horseLake",
	    "lat": 51.5881646,
	    "lng": -121.1076812
	  },
	  {
	    "reserve": "Houston",
	    "id": "houston",
	    "lat": 54.3979972,
	    "lng": -126.6482087
	  },
	  {
	    "reserve": "Hudson Hope",
	    "id": "hudsonHope",
	    "lat": 56.0357172,
	    "lng": -121.9038286
	  },
	  {
	    "reserve": "Hurons",
	    "id": "hurons",
	    "lat": 45.479396,
	    "lng": -73.230327
	  },
	  {
	    "reserve": "Iglooik",
	    "id": "iglooik",
	    "lat": 69.372505,
	    "lng": -81.82465
	  },
	  {
	    "reserve": "Iglootalik",
	    "id": "iglootalik",
	    "lat": 69.372505,
	    "lng": -81.82465
	  },
	  {
	    "reserve": "Imigen",
	    "id": "imigen",
	    "lat": 43.6882923,
	    "lng": -79.3912429
	  },
	  {
	    "reserve": "Ingenika",
	    "id": "ingenika",
	    "lat": 56.790353,
	    "lng": -124.895944
	  },
	  {
	    "reserve": "Inkamoop",
	    "id": "inkamoop",
	    "lat": 49.02825,
	    "lng": -119.435737
	  },
	  {
	    "reserve": "Inuvik",
	    "id": "inuvik",
	    "lat": 68.3607437,
	    "lng": -133.7230177
	  },
	  {
	    "reserve": "Island Falls",
	    "id": "islandFalls",
	    "lat": 55.526498,
	    "lng": -102.34823
	  },
	  {
	    "reserve": "Island Lake",
	    "id": "islandLake",
	    "lat": 53.8024368,
	    "lng": -94.4133148
	  },
	  {
	    "reserve": "Islington",
	    "id": "islington",
	    "lat": 43.6309156,
	    "lng": -79.5434841
	  },